[
  {
    "nombre": "UNION COMUNAL DE JUNTAS DE VECINOS DE VILLA ALEMANA",
    "direccion": "LONDRES NRO.781, VILLA ALEMANA",
    "latitud": -33.04438,
    "longitud": -71.37537
  },
  {
    "nombre": "JUNTA DE VECINOS CENTRO DE PEÑABLANCA",
    "direccion": "LAUTARO NRO.460 PEÑABLANCA, VILLA ALEMANA",
    "latitud": -33.044913,
    "longitud": -71.352725
  },
  {
    "nombre": "JUNTA DE VECINOS MARGA MARGA",
    "direccion": "LOURDES NRO.607 ROSENQUIST SECTOR 1, VILLA ALEMANA",
    "latitud": -33.02244,
    "longitud": -71.64148
  },
  {
    "nombre": "CLUB DE CUECA LOS COPIHUES",
    "direccion": "PILOTO PARDO NRO.149 COMUNIDAD CABO DE HORNOS, VILLA ALEMANA",
    "latitud": null,
    "longitud": null
  },
  {
    "nombre": "JUNTA DE VECINOS BERLIN",
    "direccion": "LAGO TODOS LOS SANTOS NRO. 197, VILLA ALEMANA",
    "latitud": null,
    "longitud": null
  },
  {
    "nombre": "JUNTA DE VECINOS PEÑABLANCA NORTE",
    "direccion": "COVADONGA NRO.315, VILLA ALEMANA",
    "latitud": null,
    "longitud": null
  },
  {
    "nombre": "JUNTA DE VECINOS POBLACION ALMIRANTE WILSON",
    "direccion": "EL CARACOL N°687, POBLACION ALMIRANTE WILSON, PEÑABLANCA, VILLA ALEMANA",
    "latitud": null,
    "longitud": null
  },
  {
    "nombre": "JUNTA DE VECINOS VILLA CANAL MORALEDA",
    "direccion": "PASAJE KING NRO.567, VILLA ALEMANA",
    "latitud": null,
    "longitud": null
  },
  {
    "nombre": "JUNTA DE VECINOS LA FRONTERA",
    "direccion": "CALLE TOLTEN NRO.490, VILLA ALEMANA",
    "latitud": null,
    "longitud": null
  },
  {
    "nombre": "JUNTA DE VECINOS GUMERCINDO NORTE",
    "direccion": "IGNACIO CARRERA PINTO NRO.751, V. ALEMANA",
    "latitud": -33.04419,
    "longitud": -71.37908
  },
  {
    "nombre": "JUNTA DE VECINOS TENIENTE ORELLA",
    "direccion": "BREMEN NRO.260, VILLA TENIENTE ORELLA, VILLA ALEMANA",
    "latitud": -33.05678,
    "longitud": -71.3692
  },
  {
    "nombre": "JUNTA DE VECINOS PAICAVI",
    "direccion": "FREIRE N°510, PEDRO AGUIRRE CERDA, PEÑABLANCA",
    "latitud": null,
    "longitud": null
  },
  {
    "nombre": "JUNTA DE VECINOS POBLACION PALERMO",
    "direccion": "PAUL HARRIS NRO.375 POBL. PALERMO V. ALEMANA",
    "latitud": null,
    "longitud": null
  },
  {
    "nombre": "JUNTA DE VECINOS POBLACION VICTORIA",
    "direccion": "VALDIVIA N°116, PEÑABLANCA VILLA ALEMANA",
    "latitud": null,
    "longitud": null
  },
  {
    "nombre": "JUNTA DE VECINOS RUMIE",
    "direccion": "CARMEN NRO.140, VILLA ALEMANA",
    "latitud": null,
    "longitud": null
  },
  {
    "nombre": "CLUB DE CUECA VILLA WILSON",
    "direccion": "EL CARACOL N°695 - POBL. WILSON",
    "latitud": -33.04512,
    "longitud": -71.34692
  },
  {
    "nombre": "JUNTA DE VECINOS SAN LUIS",
    "direccion": "PASAJE CARMEN NRO.1568, VILLA ALEMANA",
    "latitud": -33.04362,
    "longitud": -71.36542
  },
  {
    "nombre": "JUNTA DE VECINOS POBLACION ROSENQUIST",
    "direccion": "SANTA MARGARITA NRO 751, V. ALEMANA",
    "latitud": -33.04419,
    "longitud": -71.37908
  },
  {
    "nombre": "JUNTA DE VECINOS GONZALEZ PACHECO",
    "direccion": "SANTA MARIA NRO.648, VILLA ALEMANA",
    "latitud": null,
    "longitud": null
  },
  {
    "nombre": "JUNTA DE VECINOS BAQUEDANO",
    "direccion": "PASAJE LAS ARAUCARIAS NRO. 0554, CONJUNTO LOS PINOS, VILLA ALEMANA",
    "latitud": null,
    "longitud": null
  },
  {
    "nombre": "JUNTA DE VECINOS ARTURO PRAT",
    "direccion": "CASTELLON NRO.49 POBLACIÓN PRAT, VILLA ALEMANA",
    "latitud": null,
    "longitud": null
  },
  {
    "nombre": "CENTRO DE MADRES PALERMO",
    "direccion": "PAUL HARRIS NRO.375 POBL. PALERMO V. ALEMANA",
    "latitud": null,
    "longitud": null
  },
  {
    "nombre": "JUNTA DE VECINOS LIBERTAD",
    "direccion": "VENECIA 407 POBLACION VICENTE MARTINEZ",
    "latitud": null,
    "longitud": null
  },
  {
    "nombre": "CENTRO DE MADRES \"LA IGUALDAD\"",
    "direccion": "CANAL MORALEDA ESQ RIO MAULE POBLACION WILSON PEÑABLANCA",
    "latitud": -33.04556,
    "longitud": -71.34357
  },
  {
    "nombre": "JUNTA DE VECINOS VILLARRICA",
    "direccion": "HUANHUALI N°19, VILLA ALEMANA",
    "latitud": -33.0425,
    "longitud": -71.37323
  },
  {
    "nombre": "JUNTA DE VECINOS EL PEUMO",
    "direccion": "CALLE O'HIGGINS NRO.348, VILLA ALEMANA",
    "latitud": null,
    "longitud": null
  },
  {
    "nombre": "JUNTA DE VECINOS POBLACION FUENTES",
    "direccion": "Av. SEXTA N°0449 POBL.FUENTES VILLA ALEMANA",
    "latitud": null,
    "longitud": null
  },
  {
    "nombre": "CLUB DEPORTIVO “LA CRUZ DEL SUR”",
    "direccion": "PSJE CONDELL NRO.1342 POBL. HIJUELAS GRANDES, VILLA ALEMANA",
    "latitud": -33.04905,
    "longitud": -71.37276
  },
  {
    "nombre": "JUNTA DE VECINOS HIJUELAS GRANDES",
    "direccion": "PEDRO AGUIRRE CERDA NRO.1287, POBLACION HIJUELAS GRANDES",
    "latitud": -33.0588,
    "longitud": -71.38168
  },
  {
    "nombre": "JUNTA DE VECINOS VILLA AURORA",
    "direccion": "CALLE ARAYA NRO.1307, VILLA ALEMANA",
    "latitud": -33.0425,
    "longitud": -71.37323
  },
  {
    "nombre": "JUNTA DE VECINOS PALMILLA ALTA",
    "direccion": "CALLE CARRERA N°825, POBLACIÓN PALMILLA ALTA",
    "latitud": -33.05213,
    "longitud": -71.38644
  },
  {
    "nombre": "CLUB DE JARDINES VILLA ALEMANA",
    "direccion": "AVDA. VALPARAISO N°483, VILLA ALEMANA",
    "latitud": null,
    "longitud": null
  },
  {
    "nombre": "JUNTA DE VECINOS POBLACION DUPRE",
    "direccion": "CALLE CUMMING NRO.945, VILLA ALEMANA",
    "latitud": null,
    "longitud": null
  },
  {
    "nombre": "JUNTA DE VECINOS QUEBRADA ESCOBARES EL PATAGUAL",
    "direccion": "PARCELA NRO.7 EL PATAGUAL, VILLA ALEMANA",
    "latitud": -33.03592,
    "longitud": -71.31565
  },
  {
    "nombre": "CENTRO RECREATIVO TENIENTE ORELLA",
    "direccion": "BREMEN NRO.260, VILLA TENIENTE ORELLA, VILLA ALEMANA",
    "latitud": -33.05678,
    "longitud": -71.3692
  },
  {
    "nombre": "JUNTA DE VECINOS LA QUINTA",
    "direccion": "LOS ALMENDROS 037 VILLA ALEMANA",
    "latitud": -33.0425,
    "longitud": -71.37323
  },
  {
    "nombre": "JUNTA DE VECINOS PALMILLA BAJA",
    "direccion": "PATRICIO LYNCH NRO. 1445, PALMILLA BAJA, VILLA ALEMANA",
    "latitud": -33.058,
    "longitud": -71.36806
  },
  {
    "nombre": "JUNTA DE VECINOS SARGENTO ALDEA",
    "direccion": "ALONSO DE ERCILLA NRO.1003, VILLA ALEMANA",
    "latitud": null,
    "longitud": null
  },
  {
    "nombre": "JUNTA DE VECINOS LO GODOY",
    "direccion": "AVDA. PORVENIR NRO. 2190, VILLA TAMURE, VILLA ALEMANA",
    "latitud": null,
    "longitud": null
  },
  {
    "nombre": "CENTRO DE MADRES VILLA GERMANIA",
    "direccion": "18 DE SEPTIEMBRE NRO.341 VILLAGERMANIA, PEÑABLANCA, V. ALEMANA",
    "latitud": -33.04775,
    "longitud": -71.40112
  },
  {
    "nombre": "CENTRO DE MADRES “POBLACION VILLA ALEMANA”",
    "direccion": "PAULA JARA QUEMADA NRO.1003, POBL. CORVI, VILLA ALEMANA",
    "latitud": -33.0407,
    "longitud": -71.3631
  },
  {
    "nombre": "JUNTA DE VECINOS BARRIO NORTE",
    "direccion": "LONDRES NRO. 777, VILLA ALEMANA",
    "latitud": -33.0444,
    "longitud": -71.37531
  },
  {
    "nombre": "JUNTA DE VECINOS OJOS DE AGUA",
    "direccion": "ALCALDE MIGUEL GANDULFO N°1726, POBL. OJOS DE AGUA",
    "latitud": -33.06497,
    "longitud": -71.39964
  },
  {
    "nombre": "JUNTA DE VECINOS CONCEPCION",
    "direccion": "CONCEPCION NRO. 1040, VILLA ALEMANA",
    "latitud": null,
    "longitud": null
  },
  {
    "nombre": "CLUB DEPORTIVO “HERNAN TRIZZANO AVEZZANO”",
    "direccion": "LAS ACACIAS CON TRIZZANO S/N, VILLA ALEMANA",
    "latitud": -33.051144,
    "longitud": -71.368534
  },
  {
    "nombre": "CLUB DEPORTIVO “UNION LA FRONTERA”",
    "direccion": "TEMUCO S/N, POBLACIÓN LA FRONTERA, VILLA ALEMANA",
    "latitud": -33.067481,
    "longitud": -71.369877
  },
  {
    "nombre": "CENTRO DE MADRES “DR. FRANCISCO VELASCO”",
    "direccion": "SAN JOSE NRO. 1301, HIJUELAS GRANDES, VILLA ALEMANA",
    "latitud": -33.04905,
    "longitud": -71.37276
  },
  {
    "nombre": "CLUB ATLETICO BAQUEDANO",
    "direccion": "BAQUEDANO NRO. 487, VILLA ALEMANA",
    "latitud": -33.04094,
    "longitud": -71.3531
  },
  {
    "nombre": "CLUB DEPORTIVO DEFENSOR SARGENTO ALDEA",
    "direccion": "AVENIDA SEXTA N°046, VILLA ALEMANA",
    "latitud": null,
    "longitud": null
  },
  {
    "nombre": "JUNTA DE VECINOS LAS PARCELAS DE PEÑABLANCA",
    "direccion": "LAS ACACIAS NRO.1544, PEÑABLANCA, VILLA ALEMANA",
    "latitud": -33.05447,
    "longitud": -71.34163
  },
  {
    "nombre": "CENTRO DE MADRES “BAQUEDANO ALTO”",
    "direccion": "BAQUEDANO NRO.304, PEÑABLANCA, VILLA ALEMANA",
    "latitud": -33.0396,
    "longitud": -71.35088
  },
  {
    "nombre": "CENTRO DE MADRES \"GENERAL CARRERA\"",
    "direccion": "CARRERA CON DOLORES S/N PALMILLA ALTA",
    "latitud": -32.499881,
    "longitud": -70.881318
  },
  {
    "nombre": "CLUB DE TIRO AL BLANCO N°139 GUARDIAMARINA ERNESTO RIQUELME",
    "direccion": "AVDA. LATORRE NRO. 851, VILLA ALEMANA",
    "latitud": -33.0425,
    "longitud": -71.37323
  },
  {
    "nombre": "CENTRO DE MADRES \"ISABEL RIQUELME\"",
    "direccion": "POBLACION EL PEUMO CALLE O´HIGGINS S/N",
    "latitud": -32.925274,
    "longitud": -71.515315
  },
  {
    "nombre": "CLUB SOCIAL Y DEPORTES, PESCA, CAZA Y LANZAMIENTO DE VILLA ALEMANA",
    "direccion": "SANTIAGO NRO. 1007, VILLA ALEMANA",
    "latitud": -33.0425,
    "longitud": -71.37323
  },
  {
    "nombre": "CLUB SOCIAL Y DEPORTIVO, DE PESCA, CAZA Y LANZAMIENTO LOS DELFINES",
    "direccion": "SANTIAGO NRO. 783, VILLA ALEMANA",
    "latitud": null,
    "longitud": null
  },
  {
    "nombre": "CENTRO DE MADRES \"EL PATAGUAL\"",
    "direccion": "EL PATAGUAL S/N",
    "latitud": -33.035765,
    "longitud": -71.315008
  },
  {
    "nombre": "CLUB SOCIAL DE PENSIONADOS Y MONTEPIADAS DE LA CAJA DE PREVISION DE CARABINEROS DE VILLA ALEMANA",
    "direccion": ".",
    "latitud": -33.04419,
    "longitud": -71.372546
  },
  {
    "nombre": "CLUB DEPORTIVO Y SOCIAL “VICENTE MARTINEZ”",
    "direccion": "VENECIA NRO.407, POBLACIÓN VICENTE MARTINEZ, VILLA ALEMANA",
    "latitud": null,
    "longitud": null
  },
  {
    "nombre": "CLUB DEPORTIVO ATLETICO WILSON",
    "direccion": "CARACOL NRO.030 POBL. WILSON, VILLA ALEMANA",
    "latitud": null,
    "longitud": null
  },
  {
    "nombre": "CLUB DEPORTES “PEÑABLANCA”",
    "direccion": "MANUEL MONTT NRO.645, PEÑA BLANCA, VILLA ALEMANA",
    "latitud": null,
    "longitud": null
  },
  {
    "nombre": "CLUB DEPORTIVO “LA PALMILLA”",
    "direccion": "VETERANOS DEL 79 Nº1227 V. ALEMANA",
    "latitud": null,
    "longitud": null
  },
  {
    "nombre": "CLUB DEPORTIVO VILLARRICA",
    "direccion": "AVDA. VALPARAÍSO NRO.1436, VILLA ALEMANA",
    "latitud": -33.04416,
    "longitud": -71.38323
  },
  {
    "nombre": "CLUB DEPORTIVO, CULTURAL Y RECREATIVO JUVENTUD GALAXIA",
    "direccion": "AVIADOR FIGUEROA N°1580 C, VILLA ALEMANA",
    "latitud": null,
    "longitud": null
  },
  {
    "nombre": "CLUB DEPORTIVO \"HURACAN\"",
    "direccion": "AVDA CUARTA NRO. 452, VILLA ALEMANA",
    "latitud": -33.0425,
    "longitud": -71.37323
  },
  {
    "nombre": "CLUB DEPORTIVO Y SOCIAL  “YUNGAY”",
    "direccion": "ARRIETA NRO.767, VILLA ALEMANA",
    "latitud": -33.045472,
    "longitud": -71.377285
  },
  {
    "nombre": "CLUB SOCIAL Y DEPORTIVO “MANUEL RODRIGUEZ”",
    "direccion": "CALLE EL BOSQUE NRO.1593 POBL. HUANHUALI, VILLA ALEMANA",
    "latitud": -33.05374,
    "longitud": -71.38357
  },
  {
    "nombre": "CLUB DEPORTIVO Y SOCIAL “ARTURO PRAT”",
    "direccion": "AVENIDA CUARTA NRO.1400 POBL. PRAT, VILLA ALEMANA",
    "latitud": -33.06383,
    "longitud": -71.39583
  },
  {
    "nombre": "CLUB DEPORTIVO Y SOCIAL  “LOS CONDORES”",
    "direccion": "PORVENIR NRO.1545, POBL. ALBORADA, VILLA ALEMANA",
    "latitud": null,
    "longitud": null
  },
  {
    "nombre": "ASOCIACION DE PESCA Y CAZA Y LANZAMIENTO DE VALPARAISO",
    "direccion": "SANTIAGO NRO.781, VILLA ALEMANA",
    "latitud": -33.04438,
    "longitud": -71.37537
  },
  {
    "nombre": "CLUB DEPORTIVO Y SOCIAL “LAUTARO”",
    "direccion": "CALLE PATAGUAL, CAMINO TRONCAL S/N VILLA ALEMANA",
    "latitud": -33.034104,
    "longitud": -71.315454
  },
  {
    "nombre": "SOCIEDAD DE PORTUARIOS JUBILADOS Y MONTEPIADAS DE PORTUARIOS DE VILLA ALEMANA \"BENJAMIN DUQUE DUQUE\"",
    "direccion": ".",
    "latitud": -33.04419,
    "longitud": -71.372546
  },
  {
    "nombre": "CIRCULO ITALIANO DE VILLA ALEMANA",
    "direccion": "BAQUEDANO NRO. 996, VILLA ALEMANA",
    "latitud": -33.04266,
    "longitud": -71.36214
  },
  {
    "nombre": "CIRCULO LOS PLANETAS Y DAMAS ESTRELLAS DE VILLA ALEMANA",
    "direccion": "LAUTARO NRO.144 PARADERO 7, V. ALEMANA",
    "latitud": null,
    "longitud": null
  },
  {
    "nombre": "CLUB DEPORTIVO IVAN MAYO",
    "direccion": "CALLE DIAZ NRO. 832, VILLA ALEMANA",
    "latitud": -33.04544,
    "longitud": -71.37626
  },
  {
    "nombre": "CLUB DEPORTIVO “PALERMO”",
    "direccion": "PAUL HARRIS NRO.375 POBL. PALERMO V. ALEMANA",
    "latitud": null,
    "longitud": null
  },
  {
    "nombre": "CLUB SOCIAL Y DE DEPORTES  “JUAN CARLOS BERTONE\"",
    "direccion": "PRAT Nº252",
    "latitud": -33.070931,
    "longitud": -71.358669
  },
  {
    "nombre": "JUNTA DE VECINOS QUEBRADA ESCOBARES SUR",
    "direccion": "BELLAVISTA 2620 QUEBRADA ESCOBARES, VILLA ALEMANA",
    "latitud": null,
    "longitud": null
  },
  {
    "nombre": "JUNTA DE VECINOS VILLA ESPERANZA",
    "direccion": "EL ROCIO NRO. 1070, POBL. VILLA ESPERANZA, VILLA ALEMANA",
    "latitud": null,
    "longitud": null
  },
  {
    "nombre": "CLUB DEPORTIVO “EL PEUMO”",
    "direccion": "CALLE O'HIGGINS NRO.348, EL PEUMO, VILLA ALEMANA",
    "latitud": null,
    "longitud": null
  },
  {
    "nombre": "JUNTA DE VECINOS EL ALAMO",
    "direccion": "LAGO RANCO NRO.319, VILLA ALEMANA",
    "latitud": -33.0425,
    "longitud": -71.37323
  },
  {
    "nombre": "JUNTA DE VECINOS LA HERMANDAD",
    "direccion": "PALENA 962, PEÑABLANCA, VILLA ALEMANA",
    "latitud": null,
    "longitud": null
  },
  {
    "nombre": "JUNTA DE VECINOS LO HIDALGO",
    "direccion": "LOS QUILLAYES S/N LO HIDALGO, V. ALEMANA",
    "latitud": -33.057911,
    "longitud": -71.340493
  },
  {
    "nombre": "JUNTA DE VECINOS CASAS DEL PARQUE",
    "direccion": "LOS DIAMELOS 313 PEÑABLANCA",
    "latitud": -33.046,
    "longitud": -71.3584
  },
  {
    "nombre": "JUNTA DE VECINOS ROSENQUIST SUR",
    "direccion": "ECHAURREN ESQ COQUIMBO NRO.891",
    "latitud": -33.05748,
    "longitud": -71.37557
  },
  {
    "nombre": "CLUB DEPORTIVO, SOCIAL Y CULTURAL JORGE TORO",
    "direccion": "SAN RAFAEL NRO.1598, VILLA ALEMANA",
    "latitud": null,
    "longitud": null
  },
  {
    "nombre": "JUNTA DE VECINOS UNION GUMERCINDO",
    "direccion": "IGNACIO CARRERA PINTO NRO.596, VILLA ALEMANA",
    "latitud": null,
    "longitud": null
  },
  {
    "nombre": "JUNTA DE VECINOS ROSENQUIST III",
    "direccion": "PERÚ N°1441 CONDOMINIO EL PEHUÉN, VILLA ALEMANA",
    "latitud": null,
    "longitud": null
  },
  {
    "nombre": "JUNTA DE VECINOS VILLA MARGA MARGA 4TA. ETAPA",
    "direccion": "LOS ALGARROBOS N846 POBL. MARGA MARGA",
    "latitud": null,
    "longitud": null
  },
  {
    "nombre": "JUNTA DE VECINOS PROGRESO",
    "direccion": "VETERANOS DEL 79 N°1150, VILLA ALEMANA",
    "latitud": -33.0442,
    "longitud": -71.37949
  },
  {
    "nombre": "JUNTA DE VECINOS VILLA EL CARMEN",
    "direccion": "PASIONISTA N°1111 EL CARMEN, V. ALEMANA",
    "latitud": -33.04419,
    "longitud": -71.37908
  },
  {
    "nombre": "JUNTA DE VECINOS VILLA EL ROCIO",
    "direccion": "LOS QUELTEHUES NRO.2227, V. ALEMANA",
    "latitud": -33.0518,
    "longitud": -71.39304
  },
  {
    "nombre": "JUNTA DE VECINOS ANAKENA",
    "direccion": "AV. ALCALDE ALEJANDRO PERALTA, PSJE. I, S7N, V.EL ROCIO V ALEMANA|",
    "latitud": -33.06711,
    "longitud": -71.39025
  },
  {
    "nombre": "JUNTA DE VECINOS VILLA ISRAEL",
    "direccion": "JERUSALEN N°010",
    "latitud": null,
    "longitud": null
  },
  {
    "nombre": "CLUB DEPORTIVO VARC",
    "direccion": "IGNACIO CARRERA PINTO N°0768 VILLA ALEMANA",
    "latitud": -33.03354,
    "longitud": -71.36495
  },
  {
    "nombre": "CLUB DEPORTIVO FERRO-AMERICA",
    "direccion": "D.A. N°43, DEL 09 DE ENERO 2020",
    "latitud": null,
    "longitud": null
  },
  {
    "nombre": "JUNTA DE VECINOS ESPERANZA",
    "direccion": "ALMIRANTE NEFF NRO.588, VILLA ALEMANA",
    "latitud": -33.0425,
    "longitud": -71.37323
  },
  {
    "nombre": "JUNTA DE VECINOS VILLA EL AGUILA",
    "direccion": "CALLE 2 DE LINEA N°2580, VILLA EL AGUILA, V.ALEMANA",
    "latitud": null,
    "longitud": null
  },
  {
    "nombre": "JUNTA DE VECINOS UNION TRONCALES",
    "direccion": "ALCALDE PERALTA S/N, VILLA ALEMANA",
    "latitud": -39.861018,
    "longitud": -72.799139
  },
  {
    "nombre": "JUNTA DE VECINOS LO BERMUDEZ",
    "direccion": "FRESIA 208 POBL. LO BERMUDEZ",
    "latitud": -33.0413,
    "longitud": -71.34799
  },
  {
    "nombre": "CENTRO DE ARTE Y CULTURA“ALTERNATIVA",
    "direccion": "CALLE SANTIAGO N°674, VILLA ALEMANA",
    "latitud": null,
    "longitud": null
  },
  {
    "nombre": "JUNTA DE VECINOS VILLA GERMANIA",
    "direccion": "18 DE SEPTIEMBRE N°288, V. ALEMANA",
    "latitud": null,
    "longitud": null
  },
  {
    "nombre": "JUNTA DE VECINOS VILLA LOS MOLINOS DEL NORTE",
    "direccion": "PASAJE MALAQUITA S/N",
    "latitud": -33.502572,
    "longitud": -70.793139
  },
  {
    "nombre": "JUNTA DE VECINOS LOS AROMOS",
    "direccion": "PASAJE FLORENCIA S/N, VILLA ALEMANA",
    "latitud": -34.174335,
    "longitud": -70.688931
  },
  {
    "nombre": "CLUB DEPORTIVO ITALIANO DE VILLA ALEMANA",
    "direccion": "CALLE AVDA. SEXTA NRO.061, V. ALEMANA",
    "latitud": -33.04275,
    "longitud": -71.36328
  },
  {
    "nombre": "CLUB DEPORTIVO “SAN LORENZO”",
    "direccion": "LOS ARRAYANES, PARCELA N°188, LOS ALMENDROS, SECTOR C, PEÑABLANCA, VILLA ALEMANA",
    "latitud": null,
    "longitud": null
  },
  {
    "nombre": "COMITÉ \"VILLA UNION\"",
    "direccion": "ESMERALDA N°135, PARADERO 8 V. ALEMANA",
    "latitud": -33.045979,
    "longitud": -71.382627
  },
  {
    "nombre": "JUNTA DE VECINOS CAVIALE",
    "direccion": "RÍO IMPERIAL NRO.034, V. ALEMANA",
    "latitud": -33.0421,
    "longitud": -71.39563
  },
  {
    "nombre": "ASOC. DE BASQUETBOL DE VILLA ALEMANA - UNION COMUNAL",
    "direccion": ".",
    "latitud": -33.04419,
    "longitud": -71.372546
  },
  {
    "nombre": "CENTRO DE EX ALUMNOS COLEGIO CHAMPAGNAT DE VILLA ALEMANA",
    "direccion": ".",
    "latitud": -33.04419,
    "longitud": -71.372546
  },
  {
    "nombre": "JUNTA DE VECINOS COMUNIDAD UNIOPORT",
    "direccion": "LAS BEGONIAS NRO.101 POBL. UNIOPORT, V. ALEMANA",
    "latitud": -33.04419,
    "longitud": -71.37908
  },
  {
    "nombre": "JUNTA DE VECINOS EL BOSQUE",
    "direccion": "PASAJE APATITA S/N, VILLA ALEMANA",
    "latitud": -34.174335,
    "longitud": -70.688931
  },
  {
    "nombre": "JUNTA DE VECINOS VILLA COSMOS",
    "direccion": "PASAJE 2 CASA N°278 VILLA COSMOS VILLA ALEMANA",
    "latitud": null,
    "longitud": null
  },
  {
    "nombre": "JUNTA DE VECINOS VILLA PAUL HARRIS",
    "direccion": "TARRAGONA S/N, V. ALEMANA",
    "latitud": -33.035392,
    "longitud": -71.354405
  },
  {
    "nombre": "CLUB DEPORTIVO “28 DE ENERO DE VILLA ALEMANA”",
    "direccion": "ALGARROBO NRO.1535 OJOS DE AGUA, VILLA ALEMANA",
    "latitud": null,
    "longitud": null
  },
  {
    "nombre": "AGRUPACION DE ARTESANOS PASEO LOS HEROES",
    "direccion": "LAS ROSAS NRO. 144, POBL. GENERAL BAQUEDANO, VILLA ALEMANA",
    "latitud": -33.03988,
    "longitud": -71.38408
  },
  {
    "nombre": "CENTRO DE AMISTAD Y COOPERACION JAVIERA CARRERA",
    "direccion": ".",
    "latitud": -33.04419,
    "longitud": -71.372546
  },
  {
    "nombre": "JUNTA DE VECINOS VILLA VALPARAISO",
    "direccion": "CALLE UNIÓN NRO.132 VILLA VALPARAÍSO, V. ALEMANA",
    "latitud": -33.04419,
    "longitud": -71.37908
  },
  {
    "nombre": "COMITÉ ADELANTO VILLA RUMIE",
    "direccion": "CALLE 1090 TODOS LOS SANTOS NRO. 197, VILLA ALEMANA",
    "latitud": -33.04238,
    "longitud": -71.39691
  },
  {
    "nombre": "JUNTA DE VECINOS PAIS DE GALES",
    "direccion": "LOS AVELLANOS #791, POBL. PAIS DE GALES",
    "latitud": -33.04419,
    "longitud": -71.37908
  },
  {
    "nombre": "COMITÉ DE AGUA POTABLE RURAL DE QUEBRADA ESCOBARES,  LO HIDALGO Y EL PATAGUAL",
    "direccion": "CALLE BELLAVISTA N° 149, QUEBRADA ESCOBARES, VILLA ALEMANA",
    "latitud": -33.07764,
    "longitud": -71.30762
  },
  {
    "nombre": "JUNTA DE VECINOS POBLACION VALENCIA",
    "direccion": "PASAJE 2 NRO.1017, V. ALEMANA",
    "latitud": -33.03849,
    "longitud": -71.36176
  },
  {
    "nombre": "JUNTA DE VECINOS PARTE ALTA LAS VEGAS",
    "direccion": "CANADA ESQUINA PROYECTADA S/N",
    "latitud": -33.051144,
    "longitud": -71.368534
  },
  {
    "nombre": "JUNTA DE VECINOS CONJUNTO HABITACIONAL LA QUINTA",
    "direccion": "VENECIA S/N, VILLA ALEMANA",
    "latitud": -32.783471,
    "longitud": -71.506801
  },
  {
    "nombre": "JUNTA DE VECINOS VILLA DON FERNANDO",
    "direccion": "LOS NARANJOS NRO.450, V. ALEMANA",
    "latitud": -33.04419,
    "longitud": -71.37908
  },
  {
    "nombre": "JUNTA DE VECINOS \"POBLACION SAN ENRIQUE\"",
    "direccion": "CALLE A BLOCK 204 A POBLACION SAN ENRIQUE, VILLA ALEMANA",
    "latitud": -33.0425,
    "longitud": -71.37323
  },
  {
    "nombre": "JUNTA DE VECINOS \"VILLA PATRICIO\"",
    "direccion": "PASAJE LOS CISNES NRO.1196, V. ALEMANA",
    "latitud": null,
    "longitud": null
  },
  {
    "nombre": "CLUB DE TRIATLON DE VILLA ALEMANA",
    "direccion": "LOMBARDI NRO.195 VILLA ALEMANA",
    "latitud": -33.0408,
    "longitud": -71.36933
  },
  {
    "nombre": "JUNTA DE VECINOS LOS ALGARROBOS",
    "direccion": "ALCALDE MIGUEL GANDULFO N°22600, LOS ALGARROBOS, V. ALEMANA",
    "latitud": -33.06256,
    "longitud": -71.39237
  },
  {
    "nombre": "JUNTA DE VECINOS \"VIÑAS FUNDO EL BOSQUE\"",
    "direccion": "PASAJE DAGOBERTO GODOY N° 23 VIÑAS FUNDO EL BOSQUE",
    "latitud": null,
    "longitud": null
  },
  {
    "nombre": "CLUB DEL MEDIO AMBIENTE \"MADRE TIERRA\"",
    "direccion": "AVDA. VALPARAISO NRO.133, VILLA ALEMANA",
    "latitud": -33.04398,
    "longitud": -71.36591
  },
  {
    "nombre": "GRUPO ECOLOGICO ARTISTICO \"ECOARTS\"",
    "direccion": "WILLIAMSON NRO.191, VILLA ALEMANA",
    "latitud": -33.0425,
    "longitud": -71.37323
  },
  {
    "nombre": "CLUB RECREATIVO DEL ADULTO MAYOR",
    "direccion": "AVDA QUINTA NRO.032, V. ALEMANA",
    "latitud": null,
    "longitud": null
  },
  {
    "nombre": "CENTRO CULTURAL \"NUEVA ESQUINA\"",
    "direccion": "PABLO NERUDA NRO.2040 POBL. EL PEUMO, V. ALEMANA",
    "latitud": -33.04419,
    "longitud": -71.37908
  },
  {
    "nombre": "CLUB DEPORTIVO RECREATIVO CULTURAL DE LA COMUNA DE VILLA ALEMANA",
    "direccion": ".",
    "latitud": -33.04419,
    "longitud": -71.372546
  },
  {
    "nombre": "JUNTA DE VECINOS GERONA",
    "direccion": "PAUL HARRIS S/N GUMERCINDO, VILLA ALEMANA",
    "latitud": -33.051144,
    "longitud": -71.368534
  },
  {
    "nombre": "CLUB DEPORTIVO \"VILLA VALENCIA\"",
    "direccion": "PASAJE 2 NRO. 1047 VILLA ALEMANA",
    "latitud": -32.83628,
    "longitud": -70.68072
  },
  {
    "nombre": "GRUPO FOLKLORICO \"AMANECER CRIOLLO\"",
    "direccion": "ROMA NRO. 971 POBL. ACAPULCO, VILLA ALEMANA",
    "latitud": null,
    "longitud": null
  },
  {
    "nombre": "CLUB DE GIMNASIA ARTISTICA DE VILLA ALEMANA",
    "direccion": "BERLIN NRO.468, VILLA ALEMANA",
    "latitud": -33.0425,
    "longitud": -71.37323
  },
  {
    "nombre": "CENTRO DE MADRES \"FRESIA ARREDONDO\"",
    "direccion": "AVDA QUINTA MANZANA 10 LOTE 59 GUMERCINDO, VILLA ALEMANA",
    "latitud": -33.04414,
    "longitud": -71.37883
  },
  {
    "nombre": "JUNTA DE VECINOS SOL NACIENTE\"",
    "direccion": "AVDA QUINTA NRO. 078 VILLA ALEMANA",
    "latitud": null,
    "longitud": null
  },
  {
    "nombre": "ESCUELA DE FUTBOL \"NUEVAS ESTRELLAS\"",
    "direccion": "AVDA QUINTA NRO. 438, POBL. PALERMO, VILLA ALEMANA",
    "latitud": null,
    "longitud": null
  },
  {
    "nombre": "CLUB DEPORTIVO “ALIANZA UNIDA”",
    "direccion": "IGNACIO CARRERA PINTO NRO.1086, VILLA ALEMAMNA",
    "latitud": null,
    "longitud": null
  },
  {
    "nombre": "COMITÉ DE VIVIENDA \"ALFA Y OMEGA\"",
    "direccion": "TUCAPEL NRO.119, VILLA ALEMANA",
    "latitud": null,
    "longitud": null
  },
  {
    "nombre": "JUNTA DE VECINOS POBLACION DON FRANCISCO",
    "direccion": "CARLOS GRUHNE NRO.820 CONJ. HABIT. LOS ALBATROS, V. ALEMANA",
    "latitud": null,
    "longitud": null
  },
  {
    "nombre": "CLUB DEL ADULTO MAYOR CONSULTORIO EDUARDO FREI RUIZ-TAGLE",
    "direccion": "CALLE COQUIMBO NRO. 4981, POBLACION ROSENQUIST, VILLA ALEMANA",
    "latitud": -33.0425,
    "longitud": -71.37323
  },
  {
    "nombre": "CLUB DEPORTIVO Y SOCIAL “LA CAPILLA”",
    "direccion": "BELLAVISTA N°2620-B, QUEBRADA ESCOBARES, V. ALEMANA",
    "latitud": -33.07764,
    "longitud": -71.30762
  },
  {
    "nombre": "CLUB ADULTO MAYOR LOS ONCE AMIGOS DEL SAUCE",
    "direccion": "LAS ACACIAS NRO.510 POBL. SAN CRISTOBAL, VILLA ALEMANA",
    "latitud": null,
    "longitud": null
  },
  {
    "nombre": "JUNTA DE VECINOS VILLA HIPODROMO",
    "direccion": "PSJE. EL ESTRIBO S/N, VILLA ALEMANA",
    "latitud": -34.173732,
    "longitud": -70.677477
  },
  {
    "nombre": "JUNTA DE VECINOS ALBATROS",
    "direccion": "CARLOS GRUHNE Nº941 POBL.AUBATROS",
    "latitud": -33.03536,
    "longitud": -71.39857
  },
  {
    "nombre": "COMUNIDAD ALDEA AMBIENTAL EL MOLINO DEL PATAGUAL",
    "direccion": ".",
    "latitud": -33.04419,
    "longitud": -71.372546
  },
  {
    "nombre": "CENTRO DE FOMENTO DE LA CULTURA, EL ARTE Y LA ARTESANIA (CEFOCAART)",
    "direccion": "ALMIRANTE NEFF NRO. 740 VILLA ALEMANA",
    "latitud": null,
    "longitud": null
  },
  {
    "nombre": "JUNTA DE VECINOS ROCIO - HUANHUALI",
    "direccion": "CALLE EL BOSQUE N°1811, VILLA ALEMANA",
    "latitud": null,
    "longitud": null
  },
  {
    "nombre": "JUNTA DE VECINOS CONJUNTO HABITACIONAL VILLA OJOS DE AGUA",
    "direccion": "LA LOMA NRO.2669 CONJ. HABIT. VILLA OJOS DE AGUA, V. ALEMANA",
    "latitud": null,
    "longitud": null
  },
  {
    "nombre": "CENTRO DE PADRES Y APODERADOS DEL ESTABLECIMIENTO JUAN BAUTISTA ALBERDI",
    "direccion": "ALGARROBOS S/N, VILLA ALEMANA",
    "latitud": -33.536056,
    "longitud": -70.539934
  },
  {
    "nombre": "ASOC. DE ARBITROS DE FUTBOL DE VILLA ALEMANA",
    "direccion": "LONDRES NRO.777, VILLA ALEMANA",
    "latitud": -33.0444,
    "longitud": -71.37531
  },
  {
    "nombre": "CIRCULO DE DAMAS ROCIO-HUANHUALI",
    "direccion": "BOSQUE NRO.1703, VILLA ALEMANA",
    "latitud": -33.0425,
    "longitud": -71.37323
  },
  {
    "nombre": "JUNTA DE VECINOS JORGE TEILLIER",
    "direccion": "PSJE.OSVALDO RODRIGUEZ NRO.2398 VILLA ALEMANA",
    "latitud": null,
    "longitud": null
  },
  {
    "nombre": "ASOC. DEPORTIVA, RECREATIVA Y SOCIAL LABORAL DE VILLA ALEMANA",
    "direccion": "BAQUEDANO NRO.1151, VILLA ALEMANA",
    "latitud": -33.04396,
    "longitud": -71.36376
  },
  {
    "nombre": "JUNTA DE VECINOS EL MIRADOR SUR",
    "direccion": "CALLE ANDROMEDA NRO.1023, VILLA ALEMANA",
    "latitud": -33.0425,
    "longitud": -71.37323
  },
  {
    "nombre": "JUNTA DE VECINOS CONJUNTO HABITACIONAL EL SOL",
    "direccion": "CALLE DEL ALBA S/N CONJ HABIT EL SOL, V. ALEMANA",
    "latitud": -33.403963,
    "longitud": -70.537046
  },
  {
    "nombre": "CLUB DEL ADULTO MAYOR “TENIENTE ORELLA”",
    "direccion": "BREMEN NRO.260, VILLA TENIENTE ORELLA, V. ALEMANA",
    "latitud": -33.05678,
    "longitud": -71.3692
  },
  {
    "nombre": "CLUB DEPORTIVO “ALTO LAS VEGAS”",
    "direccion": "BRASILIA NRO.2417, LAS VEGAS",
    "latitud": -33.035239,
    "longitud": -71.393688
  },
  {
    "nombre": "CLUB DEL ADULTO MAYOR “CREPUSCULO SAN FELIPE NERI\"",
    "direccion": "CALLE LATORRE ESQ LONDRES, VILLA ALEMANA",
    "latitud": null,
    "longitud": null
  },
  {
    "nombre": "CLUB DEL ADULTO MAYOR “ABRIL AL AMANECER”",
    "direccion": "DIAZ NRO.1258, VILLA ALEMANA",
    "latitud": null,
    "longitud": null
  },
  {
    "nombre": "CLUB DEL ADULTO MAYOR “JUVENTUD EN EL ALMA”",
    "direccion": "SEXTA ESQ ROMA, VILLA ALEMANA",
    "latitud": -33.04419,
    "longitud": -71.37908
  },
  {
    "nombre": "CLUB DEL ADULTO MAYOR \"RAYITO DE SOL\"",
    "direccion": "LONDRES NRO. 711, VILLA ALEMANA",
    "latitud": -33.04438,
    "longitud": -71.37462
  },
  {
    "nombre": "CLUB DEL ADULTO MAYOR \"TERESA DE JORNETT\"",
    "direccion": "HUANHUALI ESQ. GANDARILLAS, VILLA ALEMANA",
    "latitud": -33.04419,
    "longitud": -71.37908
  },
  {
    "nombre": "CLUB DEL ADULTO MAYOR “SAN FRANCISCO DE ASIS\"",
    "direccion": "BERLÍN NRO.1020, CAPILLA SAN FRANCISCO DE ASÍS, V. ALEMANA",
    "latitud": -33.04419,
    "longitud": -71.37908
  },
  {
    "nombre": "CLUB DEL ADULTO MAYOR “PATRONO DE LA ALEGRIA\"",
    "direccion": "LONDRES NRO.771, V. ALEMANA",
    "latitud": null,
    "longitud": null
  },
  {
    "nombre": "CLUB DE ADULTO MAYOR \"LA ASUNCION DE PEÑABLANCA\"",
    "direccion": "LAUTARO NRO.388 VILLA ALEMANA",
    "latitud": -33.04415,
    "longitud": -71.35385
  },
  {
    "nombre": "CLUB DE TENIS DE VILLA ALEMANA",
    "direccion": "ASUNCIÓN ESQ LATORRE, VILLA ALEMANA",
    "latitud": -33.03735,
    "longitud": -71.35168
  },
  {
    "nombre": "CLUB DEL ADULTO MAYOR \"SEÑORAS DE VILLA ALEMANA\"",
    "direccion": "AVDA VALPARAISO ESQ CASTRO NRO. 1498 VILLA ALEMANA",
    "latitud": -33.04422,
    "longitud": -71.38446
  },
  {
    "nombre": "JUNTA DE VECINOS EL CONDOR",
    "direccion": "LAS ARAUCARIAS NRO.600, EL ROCÍO",
    "latitud": null,
    "longitud": null
  },
  {
    "nombre": "CLUB DEL ADULTO MAYOR NUESTRA VIDA\"",
    "direccion": "AVDA TERCERA NRO.0517 VILLA ALEMANA",
    "latitud": -33.03666,
    "longitud": -71.36739
  },
  {
    "nombre": "CLUB DEL ADULTO MAYOR “LOS AÑOS DORADOS DE LA POBLACION ROSENQUIST\"",
    "direccion": "SANTA MARGARITA NRO.751, V. ALEMANA",
    "latitud": -33.04419,
    "longitud": -71.37908
  },
  {
    "nombre": "JUNTA DE VECINOS CAMILO MORI",
    "direccion": "RENE QUEVEDO NRO.2647, POBL. CAMILO MORI, VILLA ALEMANA",
    "latitud": null,
    "longitud": null
  },
  {
    "nombre": "CENTRO HOLISTICO DE VILLA ALEMANA",
    "direccion": "CUMMING NRO.1137 VILLA ALEMANA",
    "latitud": null,
    "longitud": null
  },
  {
    "nombre": "CIRCULO DE DAMAS SANTA TERESITA DE LOS ANDES",
    "direccion": "PSJE GABRIEL DAZZAROLA NRO.634, POBL PALERMO VILLA ALEMANA",
    "latitud": -33.05181,
    "longitud": -71.36099
  },
  {
    "nombre": "JUNTA DE VECINOS EL AMANECER LAS VIÑAS DEL BOSQUE",
    "direccion": "PLAZA AMERICA MZJ LOTE 12",
    "latitud": null,
    "longitud": null
  },
  {
    "nombre": "CENTRO DE PADRES Y APODERADOS JARDIN INFANTIL \"ABEJITAS\"",
    "direccion": "SANTA MARGARITA NRO.1220, ROSENQUIST, V. ALEMANA",
    "latitud": null,
    "longitud": null
  },
  {
    "nombre": "CLUB DEL ADULTO MAYOR JUVENTUD ETERNA",
    "direccion": "D.A. N°454 DEL 02.04.2019",
    "latitud": null,
    "longitud": null
  },
  {
    "nombre": "ASSOCIAZIONE MARCHIGIANA DEL CILE",
    "direccion": "CASSANO NRO.1851 VILLA ALEMANA",
    "latitud": -33.05136,
    "longitud": -71.39005
  },
  {
    "nombre": "CLUB ADULTO MAYOR “RENACER EN PRIMAVERA”",
    "direccion": "VETERANOS DEL 79 N°925, PALMILLA BAJA, VILLA ALEMANA",
    "latitud": -33.0425,
    "longitud": -71.37323
  },
  {
    "nombre": "CLUB ADULTO MAYOR “LAS ROSAS BRILLAN”",
    "direccion": "BERLIN NRO.2010, V. ALEMANA",
    "latitud": -33.04419,
    "longitud": -71.37908
  },
  {
    "nombre": "CENTRO DE PADRES Y APODERADOS LICEO POLITECNICO A-38",
    "direccion": "AVDA. VALPARAISO NRO.133, VILLA ALEMANA",
    "latitud": -33.04398,
    "longitud": -71.36591
  },
  {
    "nombre": "JUNTA DE VECINOS PARQUE CENTRAL",
    "direccion": "FRAGATA LAUTARO NRO.3284, V. ALEMANA",
    "latitud": -33.03837,
    "longitud": -71.39937
  },
  {
    "nombre": "CLUB DEL ADULTO MAYOR \"CRISTO REY\"",
    "direccion": "ALCALDE GALLEGUILLOS NRO.572 VILLA ALEMANA",
    "latitud": null,
    "longitud": null
  },
  {
    "nombre": "JUNTA DE VECINOS SAN JOSE DE LA PALMILLA",
    "direccion": "CALLE LOS ZAPADORES S/N, V. ALEMANA",
    "latitud": -33.05802,
    "longitud": -71.608327
  },
  {
    "nombre": "CENTRO CULTURAL Y FOLCLORICO \"LOS DEL CANELO\"",
    "direccion": "RIGEL NRO.1445, VILLA ALEMANA",
    "latitud": -33.0425,
    "longitud": -71.37323
  },
  {
    "nombre": "JUNTA DE VECINOS VILLA DINAMARCA",
    "direccion": "DINAMARCA 1380, VILLA ALEMANA",
    "latitud": -33.04416,
    "longitud": -71.38281
  },
  {
    "nombre": "CENTRO CULTURAL \"CIMA\"",
    "direccion": "PASAJE EL QUISCO NRO.2357, VILLA ALGARROBO, V. ALEMANA",
    "latitud": null,
    "longitud": null
  },
  {
    "nombre": "JUNTA DE VECINOS MARIA MERCEDES",
    "direccion": "PERÚ N°1250 V. ALEMANA",
    "latitud": -33.05949,
    "longitud": -71.37967
  },
  {
    "nombre": "CLUB DEPORTIVO \"VILLA EL SOL 3\"",
    "direccion": "LOS FRESNOS NRO.602 VILLA EL SOL 3, VILLA ALEMANA",
    "latitud": null,
    "longitud": null
  },
  {
    "nombre": "CENTRO DE DIABETICOS E HIPERTENSOS \"VIDA NUEVA\"",
    "direccion": "ECHAURREN ESQ COQUIMBO NRO.891, VILLA ALEMANA",
    "latitud": null,
    "longitud": null
  },
  {
    "nombre": "CIRCULO DE DAMAS \"VIDA NUEVA\"",
    "direccion": "PSJE. LA DEHESA NRO.516, VILLA ALEMANA",
    "latitud": -33.03695,
    "longitud": -71.36834
  },
  {
    "nombre": "CENTRO CULTURAL JUVENIL \"LA MOVIDA SANA\"",
    "direccion": "LONDRES NRO. 779, VILLA ALEMANA",
    "latitud": -33.0425,
    "longitud": -71.37323
  },
  {
    "nombre": "COMITÉ DE ADELANTO MANZANA 24 POBLACION GUMERCINDO \"MIRANDO AL FUTURO\"",
    "direccion": "MANZANA 24 LOTE 27 POBL. GUMERCINDO, VILLA ALEMANA",
    "latitud": -33.0425,
    "longitud": -71.37323
  },
  {
    "nombre": "CENTRO CULTURAL \"VILLA ALEMANA\"",
    "direccion": "SAN ENRIQUE NRO.597 VILLA ALEMANA",
    "latitud": -33.0425,
    "longitud": -71.37323
  },
  {
    "nombre": "CENTRO DE DIABETICOS E HIPERTENSOS \"LOS PUMAS\"",
    "direccion": "PUENTE NRO.2015, EL PEUMO VILLA ALEMANA",
    "latitud": -33.04624,
    "longitud": -71.39185
  },
  {
    "nombre": "CENTRO DE APOYO, PREVENCION Y REHABILITACION PSIQUIATRICO \"PRELUDIO\"",
    "direccion": "LAUTARO NRO.263, VILLA ALEMANA",
    "latitud": -33.04306,
    "longitud": -71.35474
  },
  {
    "nombre": "CLUB DEL ADULTO MAYOR \"SONRISA DE LA ETERNA JUVENTUD\"",
    "direccion": "SAN RAFAEL NRO.1849 VILLA ALEMANA",
    "latitud": null,
    "longitud": null
  },
  {
    "nombre": "MOTO CLUB DE VILLA ALEMANA",
    "direccion": "LOS MANZANOS NRO. 3143 POBL. DON FERNANDO VILLA ALEMANA",
    "latitud": -33.0425,
    "longitud": -71.37323
  },
  {
    "nombre": "COMITÉ DE VIVIENDA \"POR UNA MEJOR CALIDAD DE VIDA\"",
    "direccion": "AVDA LONGITUDINAL NRO.62 VIÑA DEL BOSQUE VILLA ALEMANA",
    "latitud": -33.04755,
    "longitud": -71.32718
  },
  {
    "nombre": "CENTRO CULTURAL JUVENIL \"EL ALAMO\"",
    "direccion": "ENTRELAGO NRO.2517, EL ALAMO, VILLA ALEMANA",
    "latitud": null,
    "longitud": null
  },
  {
    "nombre": "COMPAÑÍA BOSQUEJO",
    "direccion": "BERLIN NRO.920 ESQ. PROGRESO, VILLA ALEMANA",
    "latitud": -33.03211,
    "longitud": -71.3753
  },
  {
    "nombre": "COMITÉ DE ADELANTO CALLE ELEODORO YAÑEZ",
    "direccion": "ELEODORO YAÑEZ NRO.1944 POBL. JOAQUIN EDWARDS BELLO, VILLA ALEMANA",
    "latitud": null,
    "longitud": null
  },
  {
    "nombre": "CIRCULO DE DAMAS \"MANOS SIN FRONTERAS\"",
    "direccion": "TRONCOS VIEJOS NRO. 2022 POBL PAIS DE GALES VILLA ALEMANA",
    "latitud": null,
    "longitud": null
  },
  {
    "nombre": "JUNTA DE VECINOS \"NUEVA HUANHUALI\"",
    "direccion": "DINAMARCA NRO.1320 SEDE B, V. ALEMANA",
    "latitud": null,
    "longitud": null
  },
  {
    "nombre": "CLUB DEL ADULTO MAYOR \"NUEVA ESPERANZA\"",
    "direccion": "O'HIGGINS NRO.348 EL PEUMO, V. ALEMANA",
    "latitud": null,
    "longitud": null
  },
  {
    "nombre": "CLUB DEPORTIVO DE KARTING 4 TIEMPOS",
    "direccion": "ARNEB NRO.2628, VILLA RIGEL, VILLA ALEMANA",
    "latitud": null,
    "longitud": null
  },
  {
    "nombre": "COMITÉ DE ADELANTO AVENIDA PRIMERA, ENTRE BARCELONA Y LERIDA",
    "direccion": "AVDA PRIMERA NRO.746 GUMERCINDO, VILLA ALEMANA",
    "latitud": null,
    "longitud": null
  },
  {
    "nombre": "JUNTA DE VECINOS \"LOS MOLINOS DEL SUR\"",
    "direccion": "ANDRES BELLO NRO.318 EL PUEMO VILLA ALEMANA",
    "latitud": -33.06208,
    "longitud": -71.36667
  },
  {
    "nombre": "CLUB DEPORTIVO DE RAYUELA \"RAUL ARAOS\"",
    "direccion": "STA. FILOMENA C/ PERU N°1101, POBLACION MARIA MERCEDES VILLA ALEMANA",
    "latitud": -33.051144,
    "longitud": -71.368534
  },
  {
    "nombre": "COMITÉ DE VIVIENDA \"LA CASA SOÑADA\"",
    "direccion": "LIMA NRO.108 POBL. FUENTES, VILLA ALEMANA",
    "latitud": null,
    "longitud": null
  },
  {
    "nombre": "CENTRO CULTURAL FOTOGRAFICO \"VILLA ALEMANA\"",
    "direccion": "AVDA SEXTA NRO. 015, VILLA ALEMANA",
    "latitud": null,
    "longitud": null
  },
  {
    "nombre": "COMITÉ DE ADELANTO \"TARRAGONA\"",
    "direccion": "AVDA. PRIMERA NRO.815, GUMERCINDO VILLA ALEMANA",
    "latitud": null,
    "longitud": null
  },
  {
    "nombre": "ORGANIZACIÓN DE DISCAPACITADOS LAZARUS",
    "direccion": "BUENOS AIRES NRO.1585, VILLA ALEMANA",
    "latitud": null,
    "longitud": null
  },
  {
    "nombre": "CLUB DEPORTIVO \"DINAMARCA\"",
    "direccion": "DINAMARCA NRO. 1380, VILLA ALEMANA",
    "latitud": -33.04416,
    "longitud": -71.38281
  },
  {
    "nombre": "COMITÉ DE ADELANTO \"LAS CUMBRES\"",
    "direccion": "PASAJE D CASA 11 LAS CUMBRES, VILLA ALEMANA",
    "latitud": null,
    "longitud": null
  },
  {
    "nombre": "CENTRO CULTURAL JUVENIL \"EL POZO DE CAVIALE\"",
    "direccion": "RIO IMPERIAL NRO.034 VILLA CAVIALE, VILLA ALEMANA",
    "latitud": -33.0421,
    "longitud": -71.39563
  },
  {
    "nombre": "COMITÉ DE ADELANTO \"LOS ALMENDROS\"",
    "direccion": "LOS NERNOS N°33 VILLA LOS DANIELES",
    "latitud": -33.04419,
    "longitud": -71.37908
  },
  {
    "nombre": "UNION COMUNAL DE CLUBES DEL ADULTO MAYOR DE VILLA ALEMANA",
    "direccion": "MATURANA NRO. 135, VILLA ALEMANA",
    "latitud": -33.04607,
    "longitud": -71.37411
  },
  {
    "nombre": "CENTRO GENERAL DE PADRES Y APODERADOS COLEGIO HISPANO",
    "direccion": "SANTIAGO NRO.280, VILLA ALEMANA",
    "latitud": null,
    "longitud": null
  },
  {
    "nombre": "CENTRO GENERAL DE PADRES Y APODERADOS ESCUELA E-397 \"WINDMILL COLLEGE\"",
    "direccion": "MADRID NRO.1439, VILLA ALEMANA",
    "latitud": null,
    "longitud": null
  },
  {
    "nombre": "CLUB DEPORTIVO Y SOCIAL PANIFICADORES",
    "direccion": "MARIA MERCEDES NRO. 1196 POBL HIJUELAS GRANDES, VILLA ALEMANA",
    "latitud": -33.05734,
    "longitud": -71.38083
  },
  {
    "nombre": "CLUB DEPORTIVO Y SOCIAL UNION CAMILO MORI",
    "direccion": "D.A. N°628 DEL 12 DE ABRIL DE 2016",
    "latitud": -33.04419,
    "longitud": -71.37908
  },
  {
    "nombre": "CLUB DEPORTIVO ESCUELA NUEVA ESTACION",
    "direccion": "BAQUEDANO NRO.333 PEÑABLANCA, VILLA ALEMANA",
    "latitud": -33.04007,
    "longitud": -71.35093
  },
  {
    "nombre": "JUNTA DE VECINOS \"VILLA ALEMANA CENTRO\"",
    "direccion": "BUENOS AIRES NRO.585, VILLA ALEMANA",
    "latitud": -33.0425,
    "longitud": -71.37323
  },
  {
    "nombre": "AGRUPACION DE DEFENSA DE LOS PERROS ABANDONADOS",
    "direccion": "AVDA. VALPARAISO NRO.626, VILLA ALEMANA",
    "latitud": -33.04427,
    "longitud": -71.37991
  },
  {
    "nombre": "AMIGAS  DE VILLA ALEMANA",
    "direccion": "AVDA. VALPARAÍSO NRO.738 2° PISO V. ALEMANA",
    "latitud": null,
    "longitud": null
  },
  {
    "nombre": "CLUB DEL ADULTO MAYOR \"LA FLOR DEL SAUCE\"",
    "direccion": "RÍO IMPERIAL NRO.034, VILLA CAVIALE, V. ALEMANA",
    "latitud": null,
    "longitud": null
  },
  {
    "nombre": "CENTRO CULTURAL Y DEPORTIVO NUEVA ESPERANZA",
    "direccion": "CARRERA NRO.1372 PALMILLA BAJA, VILLA ALEMANA",
    "latitud": null,
    "longitud": null
  },
  {
    "nombre": "JUNTA DE VECINOS \"FORESTA DEL CARMEN\"",
    "direccion": "ABTAO N°251, PEÑA BLANCA, V.ALEMANA",
    "latitud": -33.03723,
    "longitud": -71.35501
  },
  {
    "nombre": "CLUB DEL ADULTO MAYOR \"ALEGRIA DE VIVIR\"",
    "direccion": "MATURANA NRO.135, VILLA ALEMANA",
    "latitud": -33.04607,
    "longitud": -71.37411
  },
  {
    "nombre": "CENTRO DE PADRES Y AMIGOS DE TUKUYPAJ",
    "direccion": "CIEN ÁGUILAS NRO.285 V. ALEMANA",
    "latitud": null,
    "longitud": null
  },
  {
    "nombre": "CONSEJO DE DESARROLLO EN PRO HOSPITAL DE PEÑA BLANCA",
    "direccion": "SARGENTO ALDEA NRO.660, V. ALEMANA",
    "latitud": null,
    "longitud": null
  },
  {
    "nombre": "JUNTA DE VECINOS GENERAL BAQUEDANO",
    "direccion": "COLO COLO N°305, PEÑABLANCA",
    "latitud": null,
    "longitud": null
  },
  {
    "nombre": "JUNTA DE VECINOS \"NUEVA ESPERANZA\"",
    "direccion": "LAS ROSAS NRO.127 VILLA ALEMANA",
    "latitud": null,
    "longitud": null
  },
  {
    "nombre": "CLUB ADULTO MAYOR GABRIELA MISTRAL",
    "direccion": "LONDRES NRO.785, COLEGIO DE PROFESORES, VILLA ALEMANA",
    "latitud": null,
    "longitud": null
  },
  {
    "nombre": "COMITÉ DE ADELANTO \"EL CHAÑAR\"",
    "direccion": "PASAJE EL CHAÑAR NRO.651, POBL MARGA MARGA, VILLA ALEMANA",
    "latitud": null,
    "longitud": null
  },
  {
    "nombre": "COMITÉ DE VIVIENDA \"LUZ DE ESPERANZA\"",
    "direccion": "SAN RAFAEL NRO.2115, VILLA ALEMANA",
    "latitud": -33.0425,
    "longitud": -71.37323
  },
  {
    "nombre": "COMITÉ DE ADELANTO \"EL ESTRIBO - LA FUSTA\"",
    "direccion": "PSJE. EL ESTRIBO NRO.245, POBL. PRAT, VILLA ALEMANA",
    "latitud": null,
    "longitud": null
  },
  {
    "nombre": "CENTRO DE PADRES Y APODERADOS LOS MOLINOS",
    "direccion": "PROYECTADA NRO.404, PALMILLA BAJA, V. ALEMANA",
    "latitud": null,
    "longitud": null
  },
  {
    "nombre": "CENTRO JUVENIL OBIRE",
    "direccion": "DIAZ NRO.1203, VILLA ALEMANA",
    "latitud": -33.04574,
    "longitud": -71.38105
  },
  {
    "nombre": "COMITÉ DE AGUA POTABLE Y ALCANTARILLADO PARCELAS DE PEÑA BLANCA",
    "direccion": "PSJE LA PALMA LOTE 18, PARCELA 28-A, VILLA ALEMANA",
    "latitud": -33.06031,
    "longitud": -71.35839
  },
  {
    "nombre": "AGRUPACION ARTE Y CULTURA \"EXCALIBUR\"",
    "direccion": "ROMA NRO.883 VILLA ALEMANA",
    "latitud": null,
    "longitud": null
  },
  {
    "nombre": "CLUB DEPORTIVO VIÑA EL BOSQUE",
    "direccion": "LONGITUDINAL H-26, VILLA ALEMANA",
    "latitud": -33.0425,
    "longitud": -71.37323
  },
  {
    "nombre": "CENTRO CULTURAL POBLACION VILLA ALEMANA UNION FOLCLORE AMERICANO",
    "direccion": "PSJE. COLMAR NRO. 229 POBL. VILLA ALEMANA",
    "latitud": null,
    "longitud": null
  },
  {
    "nombre": "CENTRO DE MADRES \"AZUCENAS\"",
    "direccion": "EL CHAÑAR NRO.785, TRONCOS VIEJOS, VILLA ALEMANA",
    "latitud": null,
    "longitud": null
  },
  {
    "nombre": "JUNTA DE VECINOS \"MARGA MARGA UNO\"",
    "direccion": "CALLE LOS CIPRESES  N°778, VILLA ALEMANA",
    "latitud": null,
    "longitud": null
  },
  {
    "nombre": "JUNTA DE VECINOS \"AGUAS DE LA FORESTA\"",
    "direccion": "RIO LIMARI NRO.2694 BLOCK 11 DPTO.304, VILLA ALEMANA",
    "latitud": null,
    "longitud": null
  },
  {
    "nombre": "CASA DE LA MUJER",
    "direccion": "LATORRE NRO. 282, VILLA ALEMANA",
    "latitud": null,
    "longitud": null
  },
  {
    "nombre": "CENTRO DE PADRES Y APODERADOS ESCUELA LATINA INES GALLARDO ORELLANA",
    "direccion": "WILLIAMSON NRO.121, VILLA ALEMANA",
    "latitud": null,
    "longitud": null
  },
  {
    "nombre": "JUNTA DE VECINOS BAQUEDANO ALTO",
    "direccion": "LAS ACACIAS CON LOS FRESNOS, VILLA SERMENA, PEÑABLANCA VILLA ALEMANA",
    "latitud": null,
    "longitud": null
  },
  {
    "nombre": "JUNTA DE VECINOS JORGE TEILLIER II",
    "direccion": "SALVADOR REYES NRO.1541, VILLA ALEMANA",
    "latitud": null,
    "longitud": null
  },
  {
    "nombre": "CENTRO DE PADRES Y APODERADOS JARDIN INFANTIL LOS GORRIONES",
    "direccion": "PAUL HARRIS NRO.829, POBLACIÓN GUMERCINDO, V. ALEMANA",
    "latitud": -33.05547,
    "longitud": -71.36236
  },
  {
    "nombre": "CENTRO DE MADRES LOMAS DE PEÑABLANCA",
    "direccion": "LOS CISNES LOTE 10, LOMAS DE PEÑABLANCA, VILLA ALEMANA",
    "latitud": null,
    "longitud": null
  },
  {
    "nombre": "CENTRO DE PADRES Y APODERADOS \"JARDIN INFANTIL SEMILLITAS\"",
    "direccion": "NUEVA TOLTEN NRO.2599, POBL. LA FRONTERA, VILLA ALEMANA",
    "latitud": -33.0425,
    "longitud": -71.37323
  },
  {
    "nombre": "UNION FAMILIA",
    "direccion": "SANTIAGO NRO.931, VILLA ALEMANA",
    "latitud": null,
    "longitud": null
  },
  {
    "nombre": "COMITÉ ENTRE VECINAS",
    "direccion": "ALICANTE NRO.0136, MANZANA 35, VILLA ALEMANA",
    "latitud": null,
    "longitud": null
  },
  {
    "nombre": "JUNTA DE PROPIETARIOS VILLA CANAL MORALEDA",
    "direccion": "CALLE MORALEDA NRO. 564, PEÑABLANCA, VILLA ALEMANA",
    "latitud": null,
    "longitud": null
  },
  {
    "nombre": "PUCHE ÑI MAPU TAYIN MOGËN (EL RENACER DE LA GENTE DE LA TIERRA)",
    "direccion": "PISAGUA NRO.597, PALMILLA ALTA, VILLA ALEMANA",
    "latitud": -33.05231,
    "longitud": -71.37215
  },
  {
    "nombre": "ASOCIACION DE APICULTORES \"LOS MOLINOS\"",
    "direccion": "BERLIN NRO.576 VILLA ALEMANA",
    "latitud": null,
    "longitud": null
  },
  {
    "nombre": "CLUB DE AJEDREZ REY DE REYES",
    "direccion": "DIAZ NRO.418, VILLA ALEMANA",
    "latitud": null,
    "longitud": null
  },
  {
    "nombre": "COMITÉ DE VIVIENDA EL ESFUERZO",
    "direccion": "PSJE LA PALMA LOTE 18, PARCELAS DE PEÑABLANCA B",
    "latitud": null,
    "longitud": null
  },
  {
    "nombre": "AGRUPACION EN DEFENSA DE ANIMALES ABANDONADOS Y MALTRATADOS \"DANNA\"",
    "direccion": "PSJE. LOS OLIVOS NRO.3133, VILLA ALBATROS, VILLA ALEMANA",
    "latitud": null,
    "longitud": null
  },
  {
    "nombre": "CENTRO DE MADRES EL ESFUERZO",
    "direccion": "CALLE LOS PALTOS N°3115, POBLACION DON FRANCISCO, VILLA ALEMANA",
    "latitud": -33.03688,
    "longitud": -71.39823
  },
  {
    "nombre": "CENTRO CULTURAL \"NUEVAS FUERZAS\"",
    "direccion": "PARIS NRO. 1035, VILLA ALEMANA",
    "latitud": -33.0413,
    "longitud": -71.37777
  },
  {
    "nombre": "CENTRO CULTURAL JUVENIL RADIO EXODO",
    "direccion": "PORVENIR NRO.505, VILLA ALEMANA",
    "latitud": -33.0425,
    "longitud": -71.37323
  },
  {
    "nombre": "CENTRO DE MADRES DINAMARCA I",
    "direccion": "DINAMARCA NRO.1350, HUANHUALI, VILLA ALEMANA",
    "latitud": -33.0425,
    "longitud": -71.37323
  },
  {
    "nombre": "PROFAUNA VILLA ALEMANA",
    "direccion": "PARCELA NRO.6, CASAS DEL HIPODROMO, VILLA ALEMANA",
    "latitud": null,
    "longitud": null
  },
  {
    "nombre": "CORPORACION CULTURAL \"ARTES ESCENICAS\"",
    "direccion": "CALLE PRAT, PSJE. SAN LORENZO NRO.110 VILLA ALEMANA",
    "latitud": null,
    "longitud": null
  },
  {
    "nombre": "CENTRO GENERAL DE PADRES Y APODERADOS DEL COLEGIO NUEVO MILENIO",
    "direccion": "ALCALDE GALLEGUILLOS NRO.197, V. ALEMANA",
    "latitud": -33.05356,
    "longitud": -71.61619
  },
  {
    "nombre": "COMITÉ DE VIVIENDA PUENTE",
    "direccion": "CARRERA LOTE 1 MANZANA B, VILLA ALEMANA",
    "latitud": -33.05228,
    "longitud": -71.38849
  },
  {
    "nombre": "CLUB DEL ADULTO  MAYOR \"POBLACION PRAT\"",
    "direccion": "PAUL HARRIS NRO. 1400, VILLA ALEMANA",
    "latitud": null,
    "longitud": null
  },
  {
    "nombre": "JUNTA DE VECINOS ROQUE ESTEBAN SCARPA",
    "direccion": "ROCIO NRO. 1070, TRONCOS VIEJOS, VILLA ALEMANA",
    "latitud": null,
    "longitud": null
  },
  {
    "nombre": "CENTRO GENERAL DE PADRES Y APODERADOS DEL COLEGIO ALMIRANTE ARTURO WILSON",
    "direccion": "D.A. N°2285 DE FECHA 10/10/2014",
    "latitud": null,
    "longitud": null
  },
  {
    "nombre": "WITRAPÜRAN",
    "direccion": "LONDRES NRO.785, VILLA ALEMANA",
    "latitud": null,
    "longitud": null
  },
  {
    "nombre": "CENTRO CULTURAL Y DEPORTIVO \"LUCES DE VILLA ALEMANA\"",
    "direccion": "CAUPOLICAN ESQ. JOHN KENEDDY S/N, V. ALEMANA",
    "latitud": -33.035392,
    "longitud": -71.354405
  },
  {
    "nombre": "CENTRO DE PROMOCION DE EMPLEO \"LAS AMERICAS\"",
    "direccion": "CORNALINA NRO.404, LOS MOLINOS DEL NORTE, VILLA ALEMANA",
    "latitud": null,
    "longitud": null
  },
  {
    "nombre": "ACCION SOCIAL PARROQUIA LA ASUNCION",
    "direccion": "LAUTARO NRO.388, V. ALEMANA",
    "latitud": null,
    "longitud": null
  },
  {
    "nombre": "JUNTA DE VECINOS ABTAO",
    "direccion": "ABTAO N°251, PEÑA BLANCA, V.ALEMANA",
    "latitud": -33.03723,
    "longitud": -71.35501
  },
  {
    "nombre": "CLUB SOCIAL Y DEPORTIVO JUVENTUD EL MOLINO",
    "direccion": "BLANCO NRO.326, VILLA ALEMANA",
    "latitud": null,
    "longitud": null
  },
  {
    "nombre": "JUNTA DE VECINOS AGUILA UNO",
    "direccion": "ALFA C/ CENTAURI NRO. 781, VILLA EL AGUILA, VILLA ALEMANA",
    "latitud": -32.987841,
    "longitud": -71.265851
  },
  {
    "nombre": "JUNTA DE VECINOS AGUAS CLARAS",
    "direccion": "PASAJE RAPEL N°352, POBLACION AGUAS CLARAS, VILLA ALEMANA",
    "latitud": -33.05734,
    "longitud": -71.40393
  },
  {
    "nombre": "JUNTA DE VECINOS DON ESTEBAN",
    "direccion": "REGIDOR SADY NRO. 1828, VILLA ALEMANA",
    "latitud": -33.06224,
    "longitud": -71.38808
  },
  {
    "nombre": "CLUB DEL ADULTO MAYOR \"LA BUENA VECINDAD\"",
    "direccion": "LOS AVELLANOS N° 791, POBLACION PAIS DE GALES, VILLA ALEMANA",
    "latitud": null,
    "longitud": null
  },
  {
    "nombre": "CENTRO CULTURAL BELLO HOGAR",
    "direccion": "ATAHUALPA NRO.1647, POBL. EL PEUMO VILLA ALEMANA",
    "latitud": -33.0643,
    "longitud": -71.36773
  },
  {
    "nombre": "JUNTA DE VECINOS VILLA EUCALIPTUS",
    "direccion": "PSJE. LA TEPA NRO. 0141, POBL. LOS EUCALIPTUS, V.A.",
    "latitud": null,
    "longitud": null
  },
  {
    "nombre": "CENTRO GENERAL DE PADRES Y APODERADOS ESCUELA ESPECIAL F-409",
    "direccion": "ALONSO DE ERCILLA NRO.150, VILLA ALEMANA",
    "latitud": null,
    "longitud": null
  },
  {
    "nombre": "UNION COMUNAL DE JUNTAS DE VECINOS EL MOLINO DE VILLA ALEMANA",
    "direccion": "LONDRES NRO.779, VILLA ALEMANA",
    "latitud": -33.0425,
    "longitud": -71.37323
  },
  {
    "nombre": "CONSEJO LOCAL DE DEPORTES DE VILLA ALEMANA",
    "direccion": "BAQUEDANO NRO.1151, VILLA ALEMANA",
    "latitud": -33.04396,
    "longitud": -71.36376
  },
  {
    "nombre": "CLUB DEPORTIVO KEMPO/KENPO KARATE VILLA ALEMANA",
    "direccion": "BUENOS AIRES NRO.663 LOCAL 11, VILLA ALEMANA",
    "latitud": -33.13606,
    "longitud": -71.5602
  },
  {
    "nombre": "CENTRO DE PADRES Y AMIGOS CALEB, NIÑOS Y JOVENES CON TRASTORNOS NEUROLOGICOS Y PSICOMOTRICES",
    "direccion": "SANTA ELENA C-46, POBL WILSON, PEÑABLANCA, VILLA ALEMANA",
    "latitud": null,
    "longitud": null
  },
  {
    "nombre": "COMITÉ DE VIVIENDA ESPERANZA",
    "direccion": "ILUSION NRO. 18 VILLA ALEMANA",
    "latitud": null,
    "longitud": null
  },
  {
    "nombre": "CLUB DEPORTIVO, SOCIAL Y CULTURAL ITALO COMPOSTO",
    "direccion": "CONDELL NRO.445 CASA 9, VILLA ALEMANA",
    "latitud": null,
    "longitud": null
  },
  {
    "nombre": "CENTRO DE MADRES \"LUZ DE ESPERANZA NUEVA\"",
    "direccion": "SANTA ROSA MANZANA M, LOTE 9, VILLA ALEMANA",
    "latitud": null,
    "longitud": null
  },
  {
    "nombre": "AGRUPACION MICROEMPRESARIAL \"MUJER EMPRESA\"",
    "direccion": "CALLE STA. MARGARITA N°1314 POBL. ROSENQUIT",
    "latitud": null,
    "longitud": null
  },
  {
    "nombre": "JUNTA DE VECINOS JOAQUIN EDWARDS BELLO",
    "direccion": "ELEODORO YAÑEZ N° 1990, VILLA ALEMANA",
    "latitud": null,
    "longitud": null
  },
  {
    "nombre": "CENTRO CULTURAL AMULEK",
    "direccion": "BAQUEDANO NRO.409, VILLA ALEMANA",
    "latitud": null,
    "longitud": null
  },
  {
    "nombre": "CLUB DEL ADULTO MAYOR AMISTAD SINCERA",
    "direccion": "ALMIRANTE NEFF N°554",
    "latitud": -33.04419,
    "longitud": -71.37908
  },
  {
    "nombre": "LA CASA DE PABLO NERUDA",
    "direccion": "WILSON NRO.038, VILLA ALEMANA",
    "latitud": -33.0425,
    "longitud": -71.37323
  },
  {
    "nombre": "CLUB DEL ADULTO MAYOR \"ARMONIA EN MOVIMIENTO\"",
    "direccion": "LONDRES NRO.756, VILLA ALEMANA",
    "latitud": null,
    "longitud": null
  },
  {
    "nombre": "CLUB DEL ADULTO MAYOR \"ETERNA JUVENTUD\"",
    "direccion": "LONDRES NRO. 761, VILLA ALEMANA",
    "latitud": null,
    "longitud": null
  },
  {
    "nombre": "CENTRO CULTURAL BARRIO NORTE",
    "direccion": "AVDA. LATORRE NRO. 614, VILLA ALEMANA",
    "latitud": null,
    "longitud": null
  },
  {
    "nombre": "COMITÉ DE VIVIENDA PROYECTO Y FUTURO",
    "direccion": "JJ PEREZ NRO. 470, EL PEUMO, VILLA ALEMANA",
    "latitud": null,
    "longitud": null
  },
  {
    "nombre": "CENTRO DE EX-ALUMNOS DEL LICEO A-38 DE VILLA ALEMANA",
    "direccion": "AVDA. VALPARAÍSO NRO.133 VILLA ALEMANA",
    "latitud": null,
    "longitud": null
  },
  {
    "nombre": "CLUB DEL ADULTO MAYOR \"RESPLANDOR\"",
    "direccion": "LAS BEGONIAS NRO.101 POBL. UNIOPORT, V. ALEMANA",
    "latitud": -33.04419,
    "longitud": -71.37908
  },
  {
    "nombre": "CENTRO DE ESTIMULACION Y DESARROLLO PARA NIÑOS DOWN-CENDOWN \"SONRISAS DE ANGELES\"",
    "direccion": "CONCEPCION NRO1335 CASA C VILLA ALEMANA",
    "latitud": -33.03902,
    "longitud": -71.36268
  },
  {
    "nombre": "CENTRO CULTURAL \"AMIGOS DEL VINILO\"",
    "direccion": "MADRID NRO.1081 VILLA ALEMANA",
    "latitud": null,
    "longitud": null
  },
  {
    "nombre": "NOETICA",
    "direccion": "BUENOS AIRES NRO.946, VILLA ALEMANA",
    "latitud": -33.04283,
    "longitud": -71.37713
  },
  {
    "nombre": "CENTRO CULTURAL CRISOL",
    "direccion": "VENECIA NRO.937, VILLA ALEMANA",
    "latitud": -33.0425,
    "longitud": -71.37323
  },
  {
    "nombre": "CENTRO CULTURAL INFANTIL \"LA RED\"",
    "direccion": "AVDA. VALPARAISO NRO.1160 VILLA ALEMANA",
    "latitud": null,
    "longitud": null
  },
  {
    "nombre": "JUNTA DE VECINOS MOLINOS DEL SOL",
    "direccion": "LOS MOLINOS DEL SOL N°01 V.ALEMANA",
    "latitud": null,
    "longitud": null
  },
  {
    "nombre": "CENTRO JUVENIL Y CULTURAL MISTRAL DE VILLA ALEMANA",
    "direccion": "VIENA NRO.455, VILLA ALEMANA",
    "latitud": -33.0425,
    "longitud": -71.37323
  },
  {
    "nombre": "CIRCULO DE DAMAS VOLUNTARIAS \"COMUNIDAD DE AYUDA FRATERNA, C.A.F\"",
    "direccion": "MARCELINO CHAMPAGNAT NRO.270 VILLA ALEMANA",
    "latitud": null,
    "longitud": null
  },
  {
    "nombre": "JUNTA DE VECINOS CONJUNTO HABITACIONAL EL BOSQUE",
    "direccion": "PASAJE LOS TRONCOS N0320 VILLA EL BOSQUE",
    "latitud": null,
    "longitud": null
  },
  {
    "nombre": "CLUB DE ADULTO MAYOR \"NUEVO DESPERTAR\"",
    "direccion": "ALFA CENTAURI NRO. 781, VILLA EL AGUILA, VILLA ALEMANA",
    "latitud": -33.04419,
    "longitud": -71.37908
  },
  {
    "nombre": "RED SOLIDARIA \"BUEN SAMARITANO\"",
    "direccion": "LONDRES NRO.721 VILLA ALEMANA",
    "latitud": null,
    "longitud": null
  },
  {
    "nombre": "CENTRO CULTURAL LOS DURAZNOS",
    "direccion": "PSJE LOS DURAZNOS NRO.3134, VILLA ALEMANA",
    "latitud": null,
    "longitud": null
  },
  {
    "nombre": "CENTRO GENERAL DE PADRES Y APODERADOS DEL COLEGIO ALEXANDER FLEMING",
    "direccion": "AVDA VALPARAÍSO NRO.161 VILLA ALEMANA",
    "latitud": -33.04398,
    "longitud": -71.36662
  },
  {
    "nombre": "CENTRO CULTURAL \"RAYITO DE SOL\"",
    "direccion": "CHAMPAGNAT NRO.841 VILLA ALEMANA",
    "latitud": -33.0425,
    "longitud": -71.37323
  },
  {
    "nombre": "CLUB ECOLOGICO MULTIFAMILIAR VILLA ALEMANA",
    "direccion": "ARANDA NRO.284, BARRIO NORTE, VILLA ALEMANA",
    "latitud": null,
    "longitud": null
  },
  {
    "nombre": "CENTRO GENERAL DE PADRES Y APODERADOS DEL COLEGIO KAIROS",
    "direccion": "SAN ENRIQUE NRO.201, VILLA ALEMANA",
    "latitud": -33.04406,
    "longitud": -71.36762
  },
  {
    "nombre": "AGRUPACION FOLKLORICA \"DIKAISUNE\"",
    "direccion": "SARGENTO ALDEA NRO.604, VILLA ALEMANA",
    "latitud": -33.04085,
    "longitud": -71.35596
  },
  {
    "nombre": "AGRUPACION DE EMPRENDEDORES DE VILLA ALEMANA",
    "direccion": "CONDELL NRO 38, VILLA ALEMANA",
    "latitud": null,
    "longitud": null
  },
  {
    "nombre": "CENTRO CULTURAL JUVENTUD ETERNA",
    "direccion": "YUNGAY NRO.1172, VILLA ALEMANA",
    "latitud": null,
    "longitud": null
  },
  {
    "nombre": "CENTRO CULTURAL OJOS DE AGUA",
    "direccion": "CALLE CENTRAL LOTE 14 VILLA ALEMANA",
    "latitud": -33.0425,
    "longitud": -71.37323
  },
  {
    "nombre": "JUNTA DE VECINOS VILLA LOS CIPRESES",
    "direccion": "REGIDOR LUIS MUÑOZ NRO.1743, VILLA ALEMANA",
    "latitud": null,
    "longitud": null
  },
  {
    "nombre": "JUNTA DE VECINOS \"RIQUELME - JUANA ROSS\"",
    "direccion": "ISABEL RIQUELME NRO.115, VILLA ALEMANA",
    "latitud": null,
    "longitud": null
  },
  {
    "nombre": "DANZAS Y RITMOS ROSENQUIST",
    "direccion": "SANTA MARGARITA NRO.751, POBL ROSENQUIST, V. ALEMANA",
    "latitud": null,
    "longitud": null
  },
  {
    "nombre": "CLUB DEL ADULTO MAYOR \"GOLONDRINAS VIAJERAS\"",
    "direccion": "LONDRES NRO.721 VILLA ALEMANA",
    "latitud": null,
    "longitud": null
  },
  {
    "nombre": "CENTRO DE PROMOCION Y DESARROLLO DE INICIATIVAS CIUDADANAS",
    "direccion": "DOMINGO COMPOSTO NRO.330, VILLA ALEMANA",
    "latitud": null,
    "longitud": null
  },
  {
    "nombre": "AGRUPACION DE SORDOMUDOS EL CANTAR DE LOS MOLINOS",
    "direccion": "GOMEZ CARREÑO NRO.1340 POBL. HIJUELAS GRANDES, VILLA ALEMANA",
    "latitud": -33.06012,
    "longitud": -71.38476
  },
  {
    "nombre": "AGRUPACION DEL ARTE CREACIONES",
    "direccion": "AVDA. LATORRE NRO.389, VILLA ALEMANA",
    "latitud": -33.03905,
    "longitud": -71.3731
  },
  {
    "nombre": "TALLERES FUNDADORES DE SUEÑOS",
    "direccion": "AVIADOR FIGUEROA NRO.1150 POBL. LA PALMILLA, VILLA ALEMANA",
    "latitud": null,
    "longitud": null
  },
  {
    "nombre": "CENTRO GENERAL DE PADRES, APODERADOS Y AMIGOS DE LA BANDA DE GUERRA \"BOINAS AZULES\"",
    "direccion": "AVDA. VALPARAISO NRO.133, VILLA ALEMANA",
    "latitud": -33.04398,
    "longitud": -71.36591
  },
  {
    "nombre": "CENTRO CULTURAL \"ESPERANZA PARA TODOS\"",
    "direccion": "PROGRESO NRO.436, VILLA ALEMANA",
    "latitud": -33.04394,
    "longitud": -71.37047
  },
  {
    "nombre": "CONJUNTO FOLCLORICO \"LOS DE LA RIGEL\"",
    "direccion": "PASAJE HYADES NRO.2568, VILLA RIGEL, VILLA ALEMANA",
    "latitud": null,
    "longitud": null
  },
  {
    "nombre": "CENTRO CULTURAL RENACER",
    "direccion": "PASAJE LAS TAGUAS NRO.1179, POBL. DON PATRICIO, VILLA ALEMANA",
    "latitud": null,
    "longitud": null
  },
  {
    "nombre": "CENTRO DE PROMOCION COMUNITARIA \"GALERNA\"",
    "direccion": "SAN MARTIN NRO.620, VILLA ALEMANA",
    "latitud": -33.0425,
    "longitud": -71.37323
  },
  {
    "nombre": "COMITE DE VIVIENDA \"SOL NACIENTE\"",
    "direccion": "GOMEZ CARREÑO NRO.1292, VILLA ALEMANA",
    "latitud": -33.05882,
    "longitud": -71.38437
  },
  {
    "nombre": "ACUDE AMIGOS POR EL ARTE,  LA CULTURA Y EL DEPORTE DE VILLA  ALEMANA",
    "direccion": "BAQUEDANO NRO.996, VILLA ALEMANA",
    "latitud": -33.04266,
    "longitud": -71.36214
  },
  {
    "nombre": "CLUB ADULTO MAYOR \"REFLORECIENDO LA VIDA\"",
    "direccion": "AVDA QUINTA NRO.032, VILLA ALEMANA",
    "latitud": null,
    "longitud": null
  },
  {
    "nombre": "COMITE DE VIVIENDA \"CAMINO A LA ESPERANZA\"",
    "direccion": "AGUIRRE CERDA NRO.1287, VILLA ALEMANA",
    "latitud": -33.0588,
    "longitud": -71.38168
  },
  {
    "nombre": "COMITE DE VIVIENDA \"CASA MIA\"",
    "direccion": "ECHAURREN NRO.569, VILLA ALEMANA",
    "latitud": null,
    "longitud": null
  },
  {
    "nombre": "COMITE DE VIVIENDA \"EL ESFUERZO DE TODOS\"",
    "direccion": "AZURITA NRO.2536, POBL. EL BOSQUE, VILL ALEMANA",
    "latitud": null,
    "longitud": null
  },
  {
    "nombre": "CENTRO GENERAL DE PADRES Y APODERADOS DEL LICEO BICENTENARIO MARY GRAHAM",
    "direccion": "ALMIRANTE NEFF NRO.655, VILLA ALEMANA",
    "latitud": -33.04451,
    "longitud": -71.37368
  },
  {
    "nombre": "CLUB DE CUECA ENCUENTRO DE AMIGOS",
    "direccion": "FRAGATA LAUTARO NRO.3284, V. ALEMANA",
    "latitud": -33.03837,
    "longitud": -71.39937
  },
  {
    "nombre": "CENTRO GENERAL DE PADRES Y APODERADOS DE LA ESCUELA BASICA DIEGO PORTALES F-404",
    "direccion": "AVDA. BERNARDO LEIGHTON NRO.070, POBL. PRAT, VILLA ALEMANA",
    "latitud": null,
    "longitud": null
  },
  {
    "nombre": "CONJUNTO RESIDENCIAL ALTO PEÑABLANCA",
    "direccion": "THE BUTTERFLY NRO.096, VILLA ALEMANA",
    "latitud": null,
    "longitud": null
  },
  {
    "nombre": "CORO POLIFONICO  VILLA ALEMANA",
    "direccion": "SANTIAGO  674, VILLA ALEMANA",
    "latitud": null,
    "longitud": null
  },
  {
    "nombre": "AGRUPACION DE HELICULTORES DE VILLA ALEMANA",
    "direccion": "LONDRES NRO.777, VILLA ALEMANA",
    "latitud": -33.0444,
    "longitud": -71.37531
  },
  {
    "nombre": "CENTRO CULTURAL UNION ROMANE",
    "direccion": "LOS FRESNOS NRO.0607 VILLA EL SOL 3, VILLA ALEMANA",
    "latitud": -33.04419,
    "longitud": -71.37908
  },
  {
    "nombre": "COMITE DE VIVIENDA \"NUEVA LOS MOLINOS\"",
    "direccion": "SAN IGNACIO CASA 31, POBL. LOS MOLINOS, VILLA ALEMANA",
    "latitud": null,
    "longitud": null
  },
  {
    "nombre": "CLUB DEL ADULTO MAYOR \"MOLINOS DE LA ESPERANZA\"",
    "direccion": "CUMMING NRO.945, VILLA ALEMANA",
    "latitud": -33.05386,
    "longitud": -71.37501
  },
  {
    "nombre": "TALLERES COMUNITARIOS GIRASOLES",
    "direccion": "ECHAURREN C/COQUIMBO NRO.891, POBL. ROSENQUIST, VILLA ALEMANA",
    "latitud": -33.012002,
    "longitud": -71.268477
  },
  {
    "nombre": "CENTRO CULTURAL KOSKULLA",
    "direccion": "CALLE SEXTA ESQ ROMA, VILLA ALEMANA",
    "latitud": -33.04603,
    "longitud": -71.36322
  },
  {
    "nombre": "CENTRO GENERAL DE PADRES Y APODERADOS DEL COLEGIO BOSTON",
    "direccion": "AVDA PRIMERA NRO.250, VILLA ALEMANA",
    "latitud": -33.0469,
    "longitud": -71.36689
  },
  {
    "nombre": "AGRUPACION DE MICROEMPRESARIOS CONTRATISTAS EN OBRAS MENORES",
    "direccion": "SANTIAGO NRO.818-1, VILLA ALEMANA",
    "latitud": null,
    "longitud": null
  },
  {
    "nombre": "JUNTA DE VECINOS PUERTO MARINO IV",
    "direccion": "LAGO PANGUIPULLI S/N, SECTOR NORTE, VILLA ALEMANA.",
    "latitud": -32.528415,
    "longitud": -71.264885
  },
  {
    "nombre": "GRUPO DE CUECA Y FOLCLOR COSTUMBRES DE MI TIERRA",
    "direccion": "CARLOS GRUHNE NRO.820 CONJ. HABIT. LOS ALBATROS, V. ALEMANA",
    "latitud": null,
    "longitud": null
  },
  {
    "nombre": "JUNTA DE VECINOS LAS AMERICAS",
    "direccion": "RAFAEL FABRES N°2935, BLOCK A, DPTO. 42, VILLA ALEMANA",
    "latitud": null,
    "longitud": null
  },
  {
    "nombre": "CENTRO DE PREVENCION Y REHABILITACION DE DROGODEPENDIENTES \"EGEIRO\"",
    "direccion": "CUMMING NRO.47, VILLA ALEMANA",
    "latitud": -33.04495,
    "longitud": -71.37579
  },
  {
    "nombre": "CENTRO DE APOYO INTEGRAL PARA EL DESARROLLO DEL INFANTE, CRECER",
    "direccion": "D.A. N°686 DEL 01.06.2017",
    "latitud": -33.04419,
    "longitud": -71.37908
  },
  {
    "nombre": "CENTRO CULTURAL CORO SANTA CECILIA",
    "direccion": "LONDRES NRO.721 VILLA ALEMANA",
    "latitud": null,
    "longitud": null
  },
  {
    "nombre": "CENTRO GENERAL DE PADRES Y APODERADOS ESCUELA BASICA E-410 CATALUNYA",
    "direccion": "BAQUEDANO NRO. 618, PEÑABLANCA, VILLA ALEMANA",
    "latitud": null,
    "longitud": null
  },
  {
    "nombre": "COMITÉ DE VIVIENDA MI CASA NUEVA",
    "direccion": "ANIBAL PINTO NRO.0355, POBL. PEDRO GONZALEZ PACHECO, VILLA ALEMANA",
    "latitud": -33.0425,
    "longitud": -71.37323
  },
  {
    "nombre": "COMUNIDAD TERAPEUTICA SOCIAL ECOLOGICA MULTIFAMILIAR",
    "direccion": "QUINTA NRO.32, CONSULTORIO PERIFERICO, VILLA ALEMANA",
    "latitud": -33.0425,
    "longitud": -71.37323
  },
  {
    "nombre": "CLUB DEL ADULTO MAYOR \"GENESIS\"",
    "direccion": "LONDRES NRO.721 VILLA ALEMANA",
    "latitud": null,
    "longitud": null
  },
  {
    "nombre": "CENTRO CULTURAL \"LAS CHICAS PODEROSAS\"",
    "direccion": "AVDA. PAUL HARRIS BLOCK C NRO.807POBL. GUMERCINDO, VILLA ALEMANA",
    "latitud": null,
    "longitud": null
  },
  {
    "nombre": "CLUB DEL ADULTO MAYOR GIMNASIA \"LAS ALONDRAS\"",
    "direccion": "CALLE BAQUEDANO N°1151, GIMNASIO LUIS CRUZ MARTINEZ, VILLA ALEMANA",
    "latitud": null,
    "longitud": null
  },
  {
    "nombre": "ORGANIZACIÓN CULTURAL \"LA CASA DE LADRILLO\"",
    "direccion": "SAN MARTÍN NRO.595, VILLA ALEMANA",
    "latitud": -33.0425,
    "longitud": -71.37323
  },
  {
    "nombre": "JOVENES EMPRENDEDORES MICROEMPRESARIOS DE VILLA ALEMANA",
    "direccion": "SANTIAGO NRO.818, VILLA ALEMANA",
    "latitud": -33.04416,
    "longitud": -71.37556
  },
  {
    "nombre": "COMITÉ DE VIVIENDA MARGA MARGA",
    "direccion": "SAN RAFAEL NRO.1849 VILLA ALEMANA",
    "latitud": null,
    "longitud": null
  },
  {
    "nombre": "JUNTA DE VECINOS VILLA ANDREA",
    "direccion": "PASAJE SANTA MACARENA SUR NRO.1940, VILLA ALEMANA",
    "latitud": null,
    "longitud": null
  },
  {
    "nombre": "COMITÉ DE VIVIENDA NUEVO HORIZONTE",
    "direccion": "D.A. N°487 DEL 21.03.2016",
    "latitud": -33.04419,
    "longitud": -71.37908
  },
  {
    "nombre": "CENTRO DE PADRES Y APODERADOS COLEGIO MELVIN JONES",
    "direccion": "HUANHUALI NRO.997, VILLA ALEMANA",
    "latitud": null,
    "longitud": null
  },
  {
    "nombre": "CENTRO CULTURAL CAMINO DE ESPERANZA",
    "direccion": "FRANCIA NRO.2407, VILLA ALEMANA",
    "latitud": null,
    "longitud": null
  },
  {
    "nombre": "COMITÉ DE VIVIENDA LAS AÑAÑUCAS",
    "direccion": "PSJE EL TAMARUGO/ LAS AÑAÑUCAS SEDE VECINAL, V. ALEMANA",
    "latitud": -33.035392,
    "longitud": -71.354405
  },
  {
    "nombre": "JUNTA DE VECINOS ROQUE ESTEBAN SCARPA VI ETAPA",
    "direccion": "EDUARDO ANGUITA NRO. 1314, VILLA ALEMANA",
    "latitud": -33.06,
    "longitud": -71.38865
  },
  {
    "nombre": "JUNTA DE VECINOS VILLA LOS JARDINES",
    "direccion": "LAS GARDENIAS S/N, LOS JARDINES, V. ALEMANA",
    "latitud": -33.035392,
    "longitud": -71.354405
  },
  {
    "nombre": "COMITÉ DE VIVIENDA BELLAVISTA",
    "direccion": "PSAJE. ESPAÑA 1234 V. ALEMANA",
    "latitud": null,
    "longitud": null
  },
  {
    "nombre": "COMITÉ DE VIVIENDA ESPERANZA JOVEN",
    "direccion": "ANDROMEDA NRO.1023, VILLA ALEMANA",
    "latitud": -33.0425,
    "longitud": -71.37323
  },
  {
    "nombre": "COMITÉ DE VIVIENDA LOS DURAZNOS",
    "direccion": "LOS DURAZNOS NRO.3133, VILLA ALEMANA",
    "latitud": -33.0425,
    "longitud": -71.37323
  },
  {
    "nombre": "JUNTA DE VECINOS FORTALEZA",
    "direccion": "PASAJE GABRIEL DAZZAROLA NRO.701, VILLA ALEMANA",
    "latitud": null,
    "longitud": null
  },
  {
    "nombre": "COMITÉ DE VIVIENDA GENESIS",
    "direccion": "SANTA FE NRO.1145, VILLA ALEMANA",
    "latitud": null,
    "longitud": null
  },
  {
    "nombre": "COMITÉ DE VIVIENDA BELEN",
    "direccion": "SANTA MARGARITA NRO.751, VILLA ALEMANA",
    "latitud": null,
    "longitud": null
  },
  {
    "nombre": "COMITÉ DE VIVIENDA EL PARAMO",
    "direccion": "SARGENTO ALDEA NRO.285, VILLA ALEMANA",
    "latitud": -33.03682,
    "longitud": -71.34963
  },
  {
    "nombre": "COMITÉ DE VIVIENDA DINKO",
    "direccion": "ECHAURREN NRO.891, VILLA ALEMANA",
    "latitud": -33.0425,
    "longitud": -71.37323
  },
  {
    "nombre": "COMITÉ DE VIVIENDA INES DE SUAREZ",
    "direccion": "ROMA NRO.221, POBL. INES DE SUAREZ, VILLA ALEMANA",
    "latitud": null,
    "longitud": null
  },
  {
    "nombre": "JUNTA DE VECINOS A-23",
    "direccion": "PASAJE E N°2077 VILLA ALEMANA",
    "latitud": -33.0425,
    "longitud": -71.37323
  },
  {
    "nombre": "CENTRO CULTURAL VILLA ALEMANA EMPRENDE",
    "direccion": "SANTIAGO NRO.818 DPTO.1, VILLA ALEMANA",
    "latitud": null,
    "longitud": null
  },
  {
    "nombre": "COMITÉ DE ADELANTO PABLO PICASSO",
    "direccion": "SANTA ANA NRO.785, POBL PABLO PICASSO, VILLA ALEMANA",
    "latitud": null,
    "longitud": null
  },
  {
    "nombre": "CENTRO CULTURAL FAMILIA CONVIDA",
    "direccion": "MATURANA ESQ. BULNES",
    "latitud": null,
    "longitud": null
  },
  {
    "nombre": "COMITÉ DE VIVIENDA EL PEUMO",
    "direccion": "JJ PEREZ NRO.590, VILLA ALEMANA",
    "latitud": null,
    "longitud": null
  },
  {
    "nombre": "COMITÉ DE VIVIENDA JACARANDA",
    "direccion": "JOSE VENTURELLI Nº2401",
    "latitud": null,
    "longitud": null
  },
  {
    "nombre": "CENTRO CULTURAL RECREATIVO JUVENTUD Y VIDA",
    "direccion": "SANTA MARGARITA NRO.751, V. ALEMANA",
    "latitud": -33.04419,
    "longitud": -71.37908
  },
  {
    "nombre": "COMITÉ DE VIVIENDA \"QUE SUERTE LA MIA\"",
    "direccion": "SEXTA NRO.1438, VILLA ALEMANA",
    "latitud": null,
    "longitud": null
  },
  {
    "nombre": "CENTRO CULTURAL \"CODIGO DE VIDA\"",
    "direccion": "AVDA VALPARAISO NRO.541, PJE. SORIANO NRO.9, VILLA ALEMANA",
    "latitud": null,
    "longitud": null
  },
  {
    "nombre": "COMITÉ DE VIVIENDA \"LAS PALOMAS\"",
    "direccion": "CASAS DEL HIPODROMO PSJE.3 NRO.0252, VILLA ALEMANA",
    "latitud": -33.06079,
    "longitud": -71.35728
  },
  {
    "nombre": "COMITÉ DE VIVIENDA VALENCIA II",
    "direccion": "CALLE UNO NRO.97, POBL. VALENCIA, VILLA ALEMANA",
    "latitud": -33.0425,
    "longitud": -71.37323
  },
  {
    "nombre": "COMITÉ DE VIVIENDA LAS ESTRELLAS",
    "direccion": "VALENCIA CON TERCERA NRO.36, GUMERCINDO, VILLA ALEMANA",
    "latitud": null,
    "longitud": null
  },
  {
    "nombre": "COMITÉ DE VIVIENDA LOS CACHORROS",
    "direccion": "MOZART NRO.1686, VILLA ALEMANA",
    "latitud": null,
    "longitud": null
  },
  {
    "nombre": "COMITÉ DE VIVIENDA EL TRIUNFO",
    "direccion": "LOS AZAHARES NRO.1023, VILLA ALEMANA",
    "latitud": null,
    "longitud": null
  },
  {
    "nombre": "COMITÉ DE VIVIENDA PANKY",
    "direccion": "PASAJE 3 NRO.16, VILLA ALEMANA",
    "latitud": null,
    "longitud": null
  },
  {
    "nombre": "COMITÉ DE VIVIENDA SOL DE JUSTICIA",
    "direccion": "PASAJE SAN IGNACIO NRO.2470, VILLA ALEMANA",
    "latitud": -33.0425,
    "longitud": -71.37323
  },
  {
    "nombre": "COMITÉ DE VIVIENDA EL BUEN FUTURO",
    "direccion": "GABRIEL DAZZAROLA NRO.961, VILLA ALEMANA",
    "latitud": -33.05673,
    "longitud": -71.36109
  },
  {
    "nombre": "COMITÉ DE VIVIENDA SUEÑO MAS REALIDAD",
    "direccion": "CALLA A NRO.986, POBL. SAN ENRIQUE, VILLA ALEMANA",
    "latitud": null,
    "longitud": null
  },
  {
    "nombre": "CLUB DEL ADULTO MAYOR FRANCISCO TOSO STAGNARO",
    "direccion": "LAUTARO NRO. 388, PEÑABLANCA, VILLA ALEMANA",
    "latitud": -33.04415,
    "longitud": -71.35385
  },
  {
    "nombre": "COMITÉ DE VIVIENDA LA ESPERANZA",
    "direccion": "PASAJE EL OLMO NRO.0142, VILLA ALEMANA",
    "latitud": null,
    "longitud": null
  },
  {
    "nombre": "COMITÉ DE ADELANTO VECINAL LOMAS DE PEÑABLANCA",
    "direccion": "LOMAS ORIENTE NRO.0149, VILLA ALEMANA",
    "latitud": -33.0425,
    "longitud": -71.37323
  },
  {
    "nombre": "COMITÉ DE VIVIENDA DAZZAROLA",
    "direccion": "GABRIEL DAZZAROLA NRO.1011, VILLA ALEMANA",
    "latitud": null,
    "longitud": null
  },
  {
    "nombre": "COMITÉ DE VIVIENDA LOS ROSALES",
    "direccion": "PAUL HARRIS NRO.1190, GUMERCINDO, VILLA ALEMANA",
    "latitud": null,
    "longitud": null
  },
  {
    "nombre": "COMITÉ DE VIVIENDA LOS ALBATROS",
    "direccion": "CARLOS GRUHNE NRO.884, VILLA ALEMANA",
    "latitud": -33.03442,
    "longitud": -71.39872
  },
  {
    "nombre": "CLUB DEL ADULTO MAYOR \"SUEÑOS DORADOS\"",
    "direccion": "MADRID NRO.717, VILLA ALEMANA",
    "latitud": -33.04004,
    "longitud": -71.37341
  },
  {
    "nombre": "COMITÉ DE VIVIENDA NUEVA DINAMARCA",
    "direccion": "DINAMARCA NRO.1385 BLOCK 15 DPTO 101, VILLA ALEMANA",
    "latitud": null,
    "longitud": null
  },
  {
    "nombre": "COMITÉ DE VIVIENDA VOLCANES DE RUMIE",
    "direccion": "VOLCAN MIÑO NRO.2170, VILLA ALEMANA",
    "latitud": null,
    "longitud": null
  },
  {
    "nombre": "COMITÉ DE VIVIENDA TOROMIRO",
    "direccion": "TOROMIRO NRO.2128 POBL ESPERANZA, VILLA ALEMANA",
    "latitud": null,
    "longitud": null
  },
  {
    "nombre": "COMITÉ DE VIVIENDA SAN PABLO",
    "direccion": "PASAJE VOLCÁN OLCA N°2100 CASAS DE RUMIE",
    "latitud": -33.019496,
    "longitud": -71.251193
  },
  {
    "nombre": "COMITÉ DE VIVIENDA EL CIPRES",
    "direccion": "LOS AVELLANOS NRO.838, VILLA ALEMANA",
    "latitud": null,
    "longitud": null
  },
  {
    "nombre": "COMITÉ DE VIVIENDA ESTRELLA DEL VIENTO",
    "direccion": "ELEODORO YAÑEZ NRO.1990, VILLA ALEMANA",
    "latitud": null,
    "longitud": null
  },
  {
    "nombre": "COMITÉ DE VIVIENDA EL AGUILA",
    "direccion": "D.A. N°770 DE FECHA 12/04/2013",
    "latitud": -33.018591,
    "longitud": -71.558072
  },
  {
    "nombre": "COMITÉ DE VIVIENDA EL BOSQUE",
    "direccion": "EL BOSQUE NRO.0356, VILLA ALEMANA",
    "latitud": -33.03934,
    "longitud": -71.39021
  },
  {
    "nombre": "COMITÉ DE VIVIENDA CHAMPAGNAT",
    "direccion": "MARCELINO CHAMPAGNAT NRO.927, VILLA ALEMANA",
    "latitud": null,
    "longitud": null
  },
  {
    "nombre": "COMITÉ DE VIVIENDA LOS REZAGADOS",
    "direccion": "GABRIEL DAZZAROLA NRO.907, GUMERCINDO, VILLA ALEMANA",
    "latitud": null,
    "longitud": null
  },
  {
    "nombre": "COMITÉ DE VIVIENDA EL ULMO",
    "direccion": "EL ULMO NRO.871, VILLA ALEMANA",
    "latitud": null,
    "longitud": null
  },
  {
    "nombre": "COMITÉ DE VIVIENDA VILLA DUPRE",
    "direccion": "PSJE 2 NRO.1183 VILLA DUPRE, V. ALEMANA",
    "latitud": -33.04419,
    "longitud": -71.37908
  },
  {
    "nombre": "COMITÉ DE VIVIENDA ESPERANZADOS",
    "direccion": "ENTRE LAGOS NRO.2502 EL PEUMO, V. ALEMANA",
    "latitud": null,
    "longitud": null
  },
  {
    "nombre": "COMITÉ DE VIVIENDA LAS AVES",
    "direccion": "DEL CONDOR NRO.2147 VILLA EL ROCIO, VILLA ALEMANA",
    "latitud": null,
    "longitud": null
  },
  {
    "nombre": "COMITÉ DE VIVIENDA FUTURO",
    "direccion": "SAN RAFAEL NRO.1970 POBL. MARGA MARGA, VILLA ALEMANA",
    "latitud": null,
    "longitud": null
  },
  {
    "nombre": "COMITÉ DE VIVIENDA VILLA SUECIA Y VILLA UNION",
    "direccion": "VALENTIN LETELIER PSJE 7 NRO.0522, VILLA ALEMANA",
    "latitud": -33.0425,
    "longitud": -71.37323
  },
  {
    "nombre": "COMITÉ DE VIVIENDA LOS ALMENDROS",
    "direccion": "PAUL HARRIS NRO. 1551, VILLA ALEMANA",
    "latitud": null,
    "longitud": null
  },
  {
    "nombre": "COMITÉ DE ADELANTO VECINAL LOMAS DE BELLAVISTA",
    "direccion": "D.A. N°66 DEL 15.01.2016",
    "latitud": null,
    "longitud": null
  },
  {
    "nombre": "COMITÉ DE VIVIENDA DON ESTEBAN",
    "direccion": "REGIDOR SADY JOVI NRO.1815, HUANHUALI, VILLA ALEMANA",
    "latitud": null,
    "longitud": null
  },
  {
    "nombre": "COMITÉ DE VIVIENDA VILLA RIGEL",
    "direccion": "DENEB NRO.2638, VILLA RIGEL, VILLA ALEMANA",
    "latitud": null,
    "longitud": null
  },
  {
    "nombre": "COMITÉ DE VIVIENDA CALLE ABTAO",
    "direccion": "ABTAO NRO.236 PEÑABLANCA, VILLA ALEMANA",
    "latitud": -33.03689,
    "longitud": -71.35479
  },
  {
    "nombre": "COMITÉ DE VIVIENDA CAVIALE",
    "direccion": "PASAJE RIO BUENO NRO.014, VILLA ALEMANA",
    "latitud": -33.0425,
    "longitud": -71.37323
  },
  {
    "nombre": "COMITÉ DE VIVIENDA EZEQUIEL",
    "direccion": "PSJE. CECILIA NRO.575, VILLA ALEMANA",
    "latitud": -33.0425,
    "longitud": -71.37323
  },
  {
    "nombre": "COMITÉ DE VIVIENDA CHILE LINDO",
    "direccion": "PSJE. MICHEL NRO.715, EL ROCIO ALTO, VILLA ALEMANA",
    "latitud": null,
    "longitud": null
  },
  {
    "nombre": "COMITÉ DE VIVIENDA CAMILO ESPERANZA",
    "direccion": "LAS ACACIAS PONIENTE NRO.388, CAMILO MORI, VILLA ALEMANA",
    "latitud": -33.05182,
    "longitud": -71.39655
  },
  {
    "nombre": "COMITÉ DE VIVIENDA SANTIAGO HURTADO NEIRA",
    "direccion": "CAMILO MORI NRO.306, VILLA ALEMANA",
    "latitud": -33.05122,
    "longitud": -71.39723
  },
  {
    "nombre": "COMITÉ DE VIVIENDA EL CIRUELILLO",
    "direccion": "PSJE. EL CIRUELILLO NRO.1334, LOS AVELLANOS, VILLA ALEMANA",
    "latitud": -33.06073,
    "longitud": -71.39085
  },
  {
    "nombre": "COMITÉ DE VIVIENDA RELAMPAGO",
    "direccion": "JOSE BOHR NRO.1077, VILLA ALEMANA",
    "latitud": -33.06131,
    "longitud": -71.39437
  },
  {
    "nombre": "CONSEJO VECINAL DE DESARROLLO DUPRE-ROSENQUIST",
    "direccion": "MATURANA NRO.1090, VILLA ALEMANA",
    "latitud": null,
    "longitud": null
  },
  {
    "nombre": "CONSEJO VECINAL DE DESARROLLO DEL BARRIO DE HIJUELAS GRANDES",
    "direccion": "PEDRO AGUIRRE CERDA NRO.1287, VILLA ALEMANA",
    "latitud": -33.0588,
    "longitud": -71.38168
  },
  {
    "nombre": "CENTRO GENERAL DE PADRES Y APODERADOS SALA CUNA MARIANITA",
    "direccion": "PATRICIO LYNCH NRO.398, VILLA ALEMANA",
    "latitud": -33.04815,
    "longitud": -71.36989
  },
  {
    "nombre": "COMITÉ DE ADELANTO VECINAL DON VICENTE",
    "direccion": "DON VICENTE NRO.0579, VILLA ALEMANA",
    "latitud": -33.0425,
    "longitud": -71.37323
  },
  {
    "nombre": "COMITÉ DE VIVIENDA PERMANECEREMOS UNIDOS",
    "direccion": "VALLEMAR NRO.1350, POBL. ROSENQUIST, VILLA ALEMANA",
    "latitud": null,
    "longitud": null
  },
  {
    "nombre": "CENTRO DE DAMAS UNION Y AMISTAD",
    "direccion": "COVADONGA NRO. 641, VILLA ALEMANA",
    "latitud": -33.0425,
    "longitud": -71.37323
  },
  {
    "nombre": "COMITÉ DE VIVIENDA DON CRISTOBAL COLON",
    "direccion": "NUEVO MUNDO NRO. 571, VILLA ALEMANA",
    "latitud": -33.0425,
    "longitud": -71.37323
  },
  {
    "nombre": "COMITÉ DE VIVIENDA LOS 6 DE LA FORESTA",
    "direccion": "RIO LIMARI NRO.2694 BLOCK 11 DPTO.203, VILLA ALEMANA",
    "latitud": null,
    "longitud": null
  },
  {
    "nombre": "COMITÉ DE VIVIENDA POBLACIÓN PABLO PICASSO",
    "direccion": "SANTA ANA NRO.785, POBL. PABLO PICASSO, VILLA ALEMANA",
    "latitud": null,
    "longitud": null
  },
  {
    "nombre": "COMITÉ DE VIVIENDA CERRO LA VIRGEN",
    "direccion": "POBL. INES DE SUAREZ PSJE.2, CASA 211, VILLA ALEMANA",
    "latitud": null,
    "longitud": null
  },
  {
    "nombre": "COMITÉ DE VIVIENDA LAS NUBES",
    "direccion": "EL ROCIO NRO.1228, ROQUE ESTEBAN SCARPA, V. ALEMANA",
    "latitud": null,
    "longitud": null
  },
  {
    "nombre": "COMITÉ DE VIVIENDA PUERTO MARINO V",
    "direccion": "PASAJE GALERNA NRO.1952, PUERTO MARINO V, VILLA ALEMANA",
    "latitud": -33.0425,
    "longitud": -71.37323
  },
  {
    "nombre": "CENTRO CULTURAL VOLUNTARIADO SEMILLAS DE AMOR",
    "direccion": "LONDRES N°721, VILLA ALEMANA",
    "latitud": null,
    "longitud": null
  },
  {
    "nombre": "CIRCULO DE DAMAS LA FORESTA",
    "direccion": "MOZART NRO.1611, POBL. AGUAS DE LA FORESTA, VILLA ALEMANA",
    "latitud": null,
    "longitud": null
  },
  {
    "nombre": "COMITÉ DE VIVIENDA EL CASTAÑO",
    "direccion": "LOS AVELLANOS NRO.926, POBL. TRONCOS VIEJOS, VILLA ALEMANA",
    "latitud": -33.0584,
    "longitud": -71.39532
  },
  {
    "nombre": "COMITÉ DE VIVIENDA AGUAS CLARAS",
    "direccion": "PEÑUELAS NRO.1596, VILLA ALEMANA",
    "latitud": -33.03904,
    "longitud": -71.38591
  },
  {
    "nombre": "CLUB DEPORTIVO Y RECREATIVO SKATE",
    "direccion": "CUMMING NRO.675, VILLA ALEMANA",
    "latitud": null,
    "longitud": null
  },
  {
    "nombre": "JUNTA DE VECINOS JARDINES DEL SOL",
    "direccion": "PASAJE AZALEA ORIENTE N°2727, JARDINES DEL SOL, V. ALEMANA",
    "latitud": -33.05784,
    "longitud": -71.38622
  },
  {
    "nombre": "COMITÉ DE VIVIENDA VIENTO SUR",
    "direccion": "VIENTO NORTE NRO.15, VILLA ALEMANA",
    "latitud": -33.0425,
    "longitud": -71.37323
  },
  {
    "nombre": "COMITÉ DE VIVIENDA EL MAQUI",
    "direccion": "EL MAQUI NRO.2147, POBL. VILLA ESPERANZA, VILLA ALEMANA",
    "latitud": -33.05932,
    "longitud": -71.39181
  },
  {
    "nombre": "COMITÉ DE VIVIENDA SANTA SARAH",
    "direccion": "LOS PINOS NRO.1555, VILLA ALEMANA",
    "latitud": null,
    "longitud": null
  },
  {
    "nombre": "COMITÉ DE VIVIENDA LOS DOMINICOS",
    "direccion": "GUACOLDA NRO.208, LO BERMUDEZ, PEÑABLANCA, VILLA ALEMANA",
    "latitud": -33.04074,
    "longitud": -71.34785
  },
  {
    "nombre": "TALLER DE PROYECCION FOLCLORICA \"MEHUIN\"",
    "direccion": "CALLE PARÍS N°620, VILLA ALEMANA",
    "latitud": null,
    "longitud": null
  },
  {
    "nombre": "JUNTA DE VECINOS CONJUNTO HABITACIONAL LOS CIPRESES",
    "direccion": "ALCALDE GALLEGUILLOS NRO.1735, VILLA ALEMANA",
    "latitud": null,
    "longitud": null
  },
  {
    "nombre": "COMITÉ DE VIVIENDA NUEVO NORTE",
    "direccion": "PSJE ESMERALDA 2625 BLOCK 3 DPTO 52, VILLA ALEMANA",
    "latitud": null,
    "longitud": null
  },
  {
    "nombre": "CIRCULO DE DAMAS RUKATAMY",
    "direccion": "MARCELINO CHAMPAGNAT NRO.958, GUMERCINDO, VILLA ALEMANA",
    "latitud": null,
    "longitud": null
  },
  {
    "nombre": "AGRUPACION RENUEVO",
    "direccion": "CONDELL NRO.52, VILLA ALEMANA",
    "latitud": -33.0425,
    "longitud": -71.37323
  },
  {
    "nombre": "CLUB  DEPORTIVO LUIS CRUZ MARTINEZ",
    "direccion": "AVDA PRIMERA NRO.440 CASA 6, CONDOMINIO SAN FRANCISCO, VILLA ALEMANA",
    "latitud": null,
    "longitud": null
  },
  {
    "nombre": "AGRUPACION FAMILIAR GOTITA DE AMOR",
    "direccion": "DINAMARCA NRO.1250 BLOCK 34 DPTO. 303, VILLA ALEMANA",
    "latitud": -33.0425,
    "longitud": -71.37323
  },
  {
    "nombre": "CLUB DEPORTIVO HUASOS LOS ACAMPADOS",
    "direccion": "AVDA QUINTA NRO.073, VILLA ALEMANA",
    "latitud": null,
    "longitud": null
  },
  {
    "nombre": "CENTRO GENERAL DE PADRES Y APODERADOS \"ESCUELA EL PATAGUAL\"",
    "direccion": "TOMAS HURTADO S/N EL PATAGUAL, VILLA ALEMANA",
    "latitud": -33.036257,
    "longitud": -71.314847
  },
  {
    "nombre": "JUNTA DE VECINOS LOS ALMENDROS",
    "direccion": "HISPANO N°1132 C/33 AMPL.PRAT V.A",
    "latitud": -33.051144,
    "longitud": -71.368534
  },
  {
    "nombre": "COMITÉ DE VIVIENDA ORION",
    "direccion": "LAS AMERICAS NRO.0671 BLOCK 4, DPTO. 36, VILLA ALEMANA",
    "latitud": null,
    "longitud": null
  },
  {
    "nombre": "COMITÉ DE VIVIENDA LOS OLIVOS",
    "direccion": "LA PALMA PSJE LOS OLIVOS CASA 7, VILLA ALEMANA",
    "latitud": -33.0425,
    "longitud": -71.37323
  },
  {
    "nombre": "COMITÉ DE PATRIMONIO FAMILIAR \"LAS CAMELIAS Nº123\"",
    "direccion": "PASAJE G NRO.2310 BLOCK B DPTO.104, VILLA EL ROCIO, VILLA ALEMANA",
    "latitud": null,
    "longitud": null
  },
  {
    "nombre": "CLUB DEL ADULTO MAYOR BRILLOS DE JUVENTUD",
    "direccion": "D.A. N°2549 DEL 07.12.2021",
    "latitud": -33.04419,
    "longitud": -71.37908
  },
  {
    "nombre": "COMITÉ DE VIVIENDA EL CONDOR",
    "direccion": "PASAJE INTERIOR UNO CASA 620 VILLA EL ROCIO, VILLA ALEMANA",
    "latitud": null,
    "longitud": null
  },
  {
    "nombre": "RED INTERSECTORIAL VIH/SIDA DE VILLA ALEMANA",
    "direccion": "SARGENTO ALDEA NRO.660, V. ALEMANA",
    "latitud": null,
    "longitud": null
  },
  {
    "nombre": "COMITÉ DE VIVIENDA MARAVILLA",
    "direccion": "PSJE. BELFORT NRO.272, POBL. VILLA ALEMANA, VILLA ALEMANA",
    "latitud": -33.0425,
    "longitud": -71.37323
  },
  {
    "nombre": "CLUB DEL ADULTO MAYOR VILLA GERMANIA",
    "direccion": "18 DE SEPTIEMBRE NRO.288 VILLA GERMANIA, VILLA ALEMANA",
    "latitud": null,
    "longitud": null
  },
  {
    "nombre": "CENTRO GENERAL DE PADRES Y APODERADOS ESCUELA BASICA MANUEL MONTT",
    "direccion": "MANUEL MONTT NRO. 400, VILLA ALEMANA",
    "latitud": -33.0425,
    "longitud": -71.37323
  },
  {
    "nombre": "COMITÉ DE VIVIENDA RENACER",
    "direccion": "PSJE AZURITA NRO.2598 POBL. EL BOSQUE VILLA ALEMANA",
    "latitud": null,
    "longitud": null
  },
  {
    "nombre": "CIRCULO DE DAMAS ORFE",
    "direccion": "SANTA FE NRO.1145, VILLA ALEMANA",
    "latitud": null,
    "longitud": null
  },
  {
    "nombre": "CENTRO CULTURAL EL MOLINO",
    "direccion": "PEDRO MONTT NRO.300, VILLA ALEMANA",
    "latitud": -33.0425,
    "longitud": -71.37323
  },
  {
    "nombre": "CLUB DEL ADULTO MAYOR \"LA FORESTA\"",
    "direccion": "LAS ORQUIDEAS NRO.1015, VILLA ALEMANA",
    "latitud": null,
    "longitud": null
  },
  {
    "nombre": "CLUB DEPORTIVO DE TAEKWONDO SUNG MUSA DE VILLA ALEMANA",
    "direccion": "AVDA. TERCERA NRO.0209, VILLA ALEMANA",
    "latitud": null,
    "longitud": null
  },
  {
    "nombre": "JUNTA DE VECINOS VILLA DUPRE",
    "direccion": "PASAJE 2 NRO.1183, VILLA DUPRE, VILLA ALEMANA",
    "latitud": null,
    "longitud": null
  },
  {
    "nombre": "CENTRO GENERAL DE PADRES Y APODERADOS COLEGIO JEAN PIAGET",
    "direccion": "LAUTARO NRO.125, PEÑABLANCA, V. ALEMANA",
    "latitud": null,
    "longitud": null
  },
  {
    "nombre": "COMITÉ DE VIVIENDA ILUSIÓN",
    "direccion": "DINAMARCA NRO.1350, BLOCK 40 DPTO. 301, VILLA ALEMANA",
    "latitud": null,
    "longitud": null
  },
  {
    "nombre": "CENTRO GENERAL DE PADRES Y APODERADOS SCUOLA ITALIANA DE VILLA ALEMANA",
    "direccion": "D.A. N°823 DEL 20.06.2017",
    "latitud": -33.04419,
    "longitud": -71.37908
  },
  {
    "nombre": "CLUB DEPORTIVO COLEGIO SAN NICOLAS DE VILLA ALEMANA",
    "direccion": "SANTA SARAH NRO.1720, VILLA ALEMANA",
    "latitud": -33.06323,
    "longitud": -71.37659
  },
  {
    "nombre": "COMITÉ DE VIVIENDA LOS MOLINOS DE HUANHUALI",
    "direccion": "PEDRO MONTT NRO.210, VILLA ALEMANA",
    "latitud": -33.0425,
    "longitud": -71.37323
  },
  {
    "nombre": "JUNTA DE VECINOS VALENTIN LETELIER",
    "direccion": "VALENTIN LETELIER NRO. 320, VILLA ALEMANA",
    "latitud": null,
    "longitud": null
  },
  {
    "nombre": "COMITÉ DE VIVIENDA LAS MARAVILLAS",
    "direccion": "PSJE LAS MARAVILLAS CASA 2, VILLA SANTA CATALINA, VILLA ALEMANA",
    "latitud": null,
    "longitud": null
  },
  {
    "nombre": "CLUB DEPORTIVO MARGA - MARGA I",
    "direccion": "EL PIMIENTO NRO.773, POBL. MARGA MARGA, VILLA ALEMANA",
    "latitud": -33.0686,
    "longitud": -71.37101
  },
  {
    "nombre": "COMITÉ DE VIVIENDA ESPERANZA UNO",
    "direccion": "AV.VALPARAISO NRO.1397 V.ALEMANA",
    "latitud": null,
    "longitud": null
  },
  {
    "nombre": "COMITÉ DE VIVIENDA WITRANRUKA",
    "direccion": "BERNARDO LEIGHTON NRO.1550, VILLA ALEMANA",
    "latitud": null,
    "longitud": null
  },
  {
    "nombre": "S.O.S. CALLEJEROS",
    "direccion": "LATORRE N°91 LOCAL 15 VILLA ALEMANA",
    "latitud": null,
    "longitud": null
  },
  {
    "nombre": "CLUB ADULTO MAYOR RENACER",
    "direccion": "CARLOS GRUHNER NRO.941, VILLA ALEMANA",
    "latitud": null,
    "longitud": null
  },
  {
    "nombre": "COLITAS Y PATITAS",
    "direccion": "BUENOS AIRES NRO.747, VILLA ALEMANA",
    "latitud": null,
    "longitud": null
  },
  {
    "nombre": "JUNTA DE VECINOS LOMAS DE BELLAVISTA",
    "direccion": "CENTRAL LOTE 38, LOMAS DE BELLAVISTA, V. ALEMANA",
    "latitud": null,
    "longitud": null
  },
  {
    "nombre": "COMITÉ DE VIVIENDA QUIERO MI CASA EN MI BARRIO",
    "direccion": "MATURANA NRO.1090, VILLA ALEMANA",
    "latitud": null,
    "longitud": null
  },
  {
    "nombre": "CLUB DEPORTIVO LA QUINTA",
    "direccion": "PSJE GUACOLDA NRO.1749 DPTO.44, VILLA ALEMANA",
    "latitud": null,
    "longitud": null
  },
  {
    "nombre": "AGRUPACION CULTURAL Y SOCIAL AL SUR DE LOS MOLINOS",
    "direccion": "MATURANA N° 1090",
    "latitud": null,
    "longitud": null
  },
  {
    "nombre": "COMITÉ DE ADELANTO UNION POR LA ESPERANZA",
    "direccion": "DAGOBERTO GODOY LOTE C-13, VIÑAS FUNDO EL BOSQUE, VILLA ALEMANA",
    "latitud": -33.03802,
    "longitud": -71.39084
  },
  {
    "nombre": "CLUB ADULTO MAYOR BAQUEDANO",
    "direccion": "MATURANA NRO. 135, VILLA ALEMANA",
    "latitud": -33.04607,
    "longitud": -71.37411
  },
  {
    "nombre": "CENTRO CULTURAL POMPEYA",
    "direccion": "MADRID NRO.801, VILLA ALEMANA",
    "latitud": -33.0398,
    "longitud": -71.3748
  },
  {
    "nombre": "COMITÉ DE VIVIENDA LAS ALTURAS",
    "direccion": "COLO COLO NRO.238, PEÑABLANCA, VILLA ALEMANA",
    "latitud": null,
    "longitud": null
  },
  {
    "nombre": "AGRUPACION DE JUNTAS DE VECINOS SECTOR SUR PONIENTE",
    "direccion": "LOS AVELLANOS S/N V. ALEMANA",
    "latitud": -33.035392,
    "longitud": -71.354405
  },
  {
    "nombre": "COMITÉ DE MEJORAMIENTO IBAÑEZ",
    "direccion": "CONCEPCION NRO.1040, VILLA ALEMANA",
    "latitud": null,
    "longitud": null
  },
  {
    "nombre": "CLUB DEL ADULTO MAYOR EMANUEL",
    "direccion": "AVDA. VALPARAÍSO NRO.1495, VILLA ALEMANA",
    "latitud": -33.04486,
    "longitud": -71.38452
  },
  {
    "nombre": "COMITÉ DE VIVIENDAS YACOLEN",
    "direccion": "TUCAPEL NRO.80, PEDRO AGUIRRE CERDA, VILLA ALEMANA",
    "latitud": -33.03968,
    "longitud": -71.3468
  },
  {
    "nombre": "CLUB DEL ADULTO MAYOR CORAZONES VALIENTES",
    "direccion": "DINAMARCA #1380, VILLA ALEMANA",
    "latitud": null,
    "longitud": null
  },
  {
    "nombre": "CLUB DEL ADULTO MAYOR BELLO FUTURO",
    "direccion": "COQUIMBO NRO.830, VILLA ALEMANA",
    "latitud": null,
    "longitud": null
  },
  {
    "nombre": "AGRUPACION BENEFICIARIOS PROGRAMA Y ATENCION INTEGRAL EN SALUD, PRAIS DE VILLA ALEMANA",
    "direccion": "CONDELL NRO.79-B, 2° PISO, VILLA ALEMANA",
    "latitud": null,
    "longitud": null
  },
  {
    "nombre": "CLUB DEPORTIVO \"EXCELENCIA PIT VILLA ALEMANA\"",
    "direccion": "ECHAURREN NRO.310, VILLA ALEMANA",
    "latitud": null,
    "longitud": null
  },
  {
    "nombre": "AGRUPACION FOLKLORICA VALLES DEL MARGA - MARGA",
    "direccion": "MARCELINO CHAMPAGNAT NRO.1451, VILLA ALEMANA",
    "latitud": -33.0425,
    "longitud": -71.37323
  },
  {
    "nombre": "COMITÉ DE VIVIENDA BAQUEDANO ALTO",
    "direccion": "LOS FRESNOS NRO.051, VILLA ALEMANA",
    "latitud": -33.0425,
    "longitud": -71.37323
  },
  {
    "nombre": "CLUB DEL ADULTO MAYOR FUTURO DORADO",
    "direccion": "CAUPOLICAN Nº615, PEÑABLANCA",
    "latitud": null,
    "longitud": null
  },
  {
    "nombre": "UNION COMUNAL DE CENTRO GENERAL DE PADRES Y APODERADOS DE VILLA ALEMANA",
    "direccion": "CALLE QUINTA NRO.50 VILLA ALEMANA",
    "latitud": null,
    "longitud": null
  },
  {
    "nombre": "CENTRO JUVENIL CULTURAL SAN ENRIQUE",
    "direccion": "CALLE A BLOCK 791 DPTO 103-B, POBL. SAN ENRIQUE, VILLA ALEMANA",
    "latitud": null,
    "longitud": null
  },
  {
    "nombre": "CLUB DE ADULTO MAYOR LOS ALGARROBOS",
    "direccion": "LOS ALGARROBOS NRO.1021, POBL ESPERANZA, V. ALEMANA",
    "latitud": null,
    "longitud": null
  },
  {
    "nombre": "AGRUPACION DE DEPORTES Y CARDIOSALUD",
    "direccion": "QUINTA NRO.32, CONSULTORIO PERIFERICO, VILLA ALEMANA",
    "latitud": -33.0425,
    "longitud": -71.37323
  },
  {
    "nombre": "AGRUPACION DE FERIANTES Nº1 LIBRE DE VILLA ALEMANA",
    "direccion": "VETERENOS DEL 79 NRO.1227, V. ALEMANA",
    "latitud": null,
    "longitud": null
  },
  {
    "nombre": "CENTRO GENERAL DE PADRES Y APODERADOS DEL COLEGIO AMERICAN COLLEGE DE VILLA ALEMANA",
    "direccion": "SAN JORGE NRO.058, VILLA ALEMANA",
    "latitud": -33.0425,
    "longitud": -71.37323
  },
  {
    "nombre": "CLUB DE ADULTO MAYOR \"ALEGRIA DE VIDA\"",
    "direccion": "LONDRES NRO.781, VILLA ALEMANA",
    "latitud": -33.04438,
    "longitud": -71.37537
  },
  {
    "nombre": "TALLER DE GIMNASIA SUEÑO SIN FIN",
    "direccion": "LONDRES NRO. 721, VILLA ALEMANA",
    "latitud": null,
    "longitud": null
  },
  {
    "nombre": "AGRUPACION DE JUNTAS DE VECINOS Y ORGANIZACIONES FUNCIONALES DE VILLA ALEMANA",
    "direccion": "SANTA MARGARITA NRO.751, VILLA ALEMANA",
    "latitud": null,
    "longitud": null
  },
  {
    "nombre": "COMITÉ DE VIVIENDA LOS MOLINOS DE VILLA ALEMANA",
    "direccion": "LAGO TODOS LOS SANTOS N°022 VILLLA ALEMANA",
    "latitud": -33.04294,
    "longitud": -71.39616
  },
  {
    "nombre": "COMITÉ DE VIVIENDA LA ALBORADA",
    "direccion": "LONDRES NRO.785, VILLA ALEMANA",
    "latitud": null,
    "longitud": null
  },
  {
    "nombre": "AGRUPACION EMPRENDEDORES JIREH VILLA ALEMANA",
    "direccion": "EL BOSQUE ESQ. HUANHUALI, VILLA ALEMANA",
    "latitud": null,
    "longitud": null
  },
  {
    "nombre": "COMITÉ DE ADELANTO VECINAL PASAJE HOLA",
    "direccion": "AVDA. IGNACIO CARRERA PINTO, PASAJE HOLA NRO.020, VILLA ALEMANA",
    "latitud": null,
    "longitud": null
  },
  {
    "nombre": "COMITÉ DE VIVIENDA LOS VECINOS",
    "direccion": "VOLCAN LICANCABUR NRO.2150, VILLA ALEMANA",
    "latitud": -33.0425,
    "longitud": -71.37323
  },
  {
    "nombre": "CENTRO CULTURAL Y DEPORTIVO \"LOS GIRASOLES\"",
    "direccion": "D.A. N°229 DEL 01.02.2021",
    "latitud": -33.04419,
    "longitud": -71.37908
  },
  {
    "nombre": "CENTRO ESTRATEGICO DE CRECIMIENTO ESPIRITUAL ROMPIENDO LIMITES",
    "direccion": "PASAJE 2 CASA 523, VALENTIN LETELIER, VILLA ALEMANA",
    "latitud": null,
    "longitud": null
  },
  {
    "nombre": "JUNTA DE VECINOS \"CONJUNTO RESIDENCIAL REINA ISABEL\"",
    "direccion": "PASAJE ASTURIAS SIN NUMERO",
    "latitud": null,
    "longitud": null
  },
  {
    "nombre": "COMITÉ DE VIVIENDA LOS AVELLANOS I",
    "direccion": "LERIDA BLOCK A DPTO 306, POBL. GUMERCINDO, VILLA ALEMANA",
    "latitud": -33.0425,
    "longitud": -71.37323
  },
  {
    "nombre": "COMITÉ DE VIVIENDA \"LOS ALMENDROS II\"",
    "direccion": "PRIMERA NRO.732, VILLA ALEMANA",
    "latitud": null,
    "longitud": null
  },
  {
    "nombre": "COMITÉ DE VIVIENDA LOS AVELLANOS II",
    "direccion": "INDEPENDENCIA NRO.541, PEÑABLANCA, VILLA ALEMANA",
    "latitud": null,
    "longitud": null
  },
  {
    "nombre": "CLUB DE ADULTO MAYOR CONTENTO SEÑOR CONTENTO",
    "direccion": "GARDENIAS S/N, VILLA ALEMANA",
    "latitud": -32.783471,
    "longitud": -71.506801
  },
  {
    "nombre": "VOLUNTARIADO DE APOYO Y ORIENTACION FAMILIAR - SERPRO",
    "direccion": "CUMMING NRO.47, VILLA ALEMANA",
    "latitud": -33.04495,
    "longitud": -71.37579
  },
  {
    "nombre": "CENTRO DE APOYO INTEGRAL MASNA",
    "direccion": "SARGENTO ALDEA NRO.536, PEÑABLANCA, VILLA ALEMANA",
    "latitud": -33.0406,
    "longitud": -71.35451
  },
  {
    "nombre": "COOPERADORES AMIGONIANOS",
    "direccion": "VICTORIA NRO.050, VILLA ALEMANA",
    "latitud": null,
    "longitud": null
  },
  {
    "nombre": "CLUB DE MOTOQUEROS INDEPENDIENTES Vª REGION",
    "direccion": "MANUEL MONTT NRO.548, VILLA ALEMANA",
    "latitud": null,
    "longitud": null
  },
  {
    "nombre": "CARDIO VIDA TALLER DE ACTIVIDAD FISICA",
    "direccion": "TAMARUGO S/N MARGA MARGA",
    "latitud": -33.0576,
    "longitud": -71.393532
  },
  {
    "nombre": "VOLUNTARIADO SAN ALBERTO HURTADO",
    "direccion": "LAUTARO NRO.388, V. ALEMANA",
    "latitud": null,
    "longitud": null
  },
  {
    "nombre": "CENTRO GENERAL DE PADRES Y APODERADOS COLEGIO ENTRE VALLES",
    "direccion": "LAS HIGUERAS NRO.1051, VILLA ALEMANA",
    "latitud": null,
    "longitud": null
  },
  {
    "nombre": "CLUB DEL ADULTO MAYOR VICTORIA",
    "direccion": "PASAJE MALLORCA N°55, VILLA ALEMANA",
    "latitud": null,
    "longitud": null
  },
  {
    "nombre": "CLUB DE ADULTO MAYOR RENACER DE HIJUELAS GRANDES",
    "direccion": "PEDRO AGUIRRE CERDA NRO.1287, POBLACION HIJUELAS GRANDES, VILLA ALEMANA",
    "latitud": null,
    "longitud": null
  },
  {
    "nombre": "CLUB DEL ADULTO MAYOR LUZ Y ESPERANZA",
    "direccion": "LOS CASTAÑOS NRO.2072, V. ALEMANA",
    "latitud": null,
    "longitud": null
  },
  {
    "nombre": "AGRUPACION DE MUJERES NUESTRAS MANOS TE APOYAN",
    "direccion": "PASAJE CARMEN NRO.1799, VILLA ALEMANA",
    "latitud": null,
    "longitud": null
  },
  {
    "nombre": "AGRUPACION ALEGRIA DE VIVIR",
    "direccion": "VICTORIA NRO.351 B, VILLA ALEMANA",
    "latitud": null,
    "longitud": null
  },
  {
    "nombre": "COMITÉ DE VIVIENDA LOS AVELLANOS III",
    "direccion": "MADRID NRO.717, VILLA ALEMANA",
    "latitud": -33.04004,
    "longitud": -71.37341
  },
  {
    "nombre": "AGRUPACION DE ORGANIZACIONES COMUNITARIAS Y SOCIALES DE PEÑABLANCA - VILLA ALEMANA",
    "direccion": "CALLE LAUTARO NRO.460, PEÑABLANCA, VILLA ALEMANA",
    "latitud": -33.04491,
    "longitud": -71.35273
  },
  {
    "nombre": "COMITÉ DE VIVIENDA LUZ EN EL HORIZONTE",
    "direccion": "HUANHUALI NRO.997, VILLA ALEMANA",
    "latitud": null,
    "longitud": null
  },
  {
    "nombre": "ESCUELA URBANA DE MUSICA",
    "direccion": "PASAJE LOS JAZMINES NRO.112, VILLA ALEMANA",
    "latitud": -33.0425,
    "longitud": -71.37323
  },
  {
    "nombre": "CLUB DEL ADULTO MAYOR VINCULOS DE LA AMISTAD",
    "direccion": "LONDRES N°777, VILLA ALEMANA",
    "latitud": -33.0444,
    "longitud": -71.37531
  },
  {
    "nombre": "COMITÉ DE VIVIENDA ESPERANZA EL PEUMO",
    "direccion": "O'HIGGINS NRO.348 EL PEUMO, V. ALEMANA",
    "latitud": null,
    "longitud": null
  },
  {
    "nombre": "CLUB DEL ADULTO MAYOR RIQUEZAS DE VIDA",
    "direccion": "PORVENIR NRO.1457, VILLA ALEMANA",
    "latitud": -33.0425,
    "longitud": -71.37323
  },
  {
    "nombre": "CENTRO DE RESTAURACION A LAS FAMILIAS MINISTERIO DE NEHEMIAS",
    "direccion": "SAN RAFAEL NRO.1810, POBL. ROSENQUIST, VILLA ALEMANA",
    "latitud": null,
    "longitud": null
  },
  {
    "nombre": "SOCIEDAD PROTECTORA DE ANIMALES \"SAN FRANCISCO DE ASIS\"",
    "direccion": "D.A. N°639 DE FECHA 24/05/2017",
    "latitud": -33.019185,
    "longitud": -71.557028
  },
  {
    "nombre": "CIRCULO ARTISTICO Y LITERARIO CARLOS PEZOA VELIZ",
    "direccion": "BELLAVISTA NRO.1230, VILLA ALEMANA",
    "latitud": -33.05656,
    "longitud": -71.3843
  },
  {
    "nombre": "CENTRO CULTURAL Y JUVENIL JOVENES POR VILLA ALEMANA",
    "direccion": "ROMA NRO.548, VILLA ALEMANA",
    "latitud": null,
    "longitud": null
  },
  {
    "nombre": "COMITÉ DE ADELANTO \"FAMILIA EMPRENDEDORA\"",
    "direccion": "CARLOS GRUHNE DPTO.24 BLOCK F, VILLA ALEMANA",
    "latitud": -33.03414,
    "longitud": -71.39871
  },
  {
    "nombre": "BATALLON CIVICO SOCIAL Nº1 VILLA ALEMANA",
    "direccion": "PROGRESO NRO.111, VILLA ALEMANA",
    "latitud": -33.03266,
    "longitud": -71.37695
  },
  {
    "nombre": "COMEDOR ABIERTO LOMAS DE PEÑABLANCA",
    "direccion": "LOS CISNES LOTE 14 POBL. JERUSALEN , VILLA ALEMANA",
    "latitud": -33.0425,
    "longitud": -71.37323
  },
  {
    "nombre": "CENTRO DE INTEGRACION ARMONIA UNIVERSAL",
    "direccion": "BALMACEDA NRO.188-2, V. ALEMANA",
    "latitud": null,
    "longitud": null
  },
  {
    "nombre": "CLUB DEPORTIVO ESCOLAR COLEGIO HYATT",
    "direccion": "AVDA VALPARAISO NRO.1539, VILLA ALEMANA",
    "latitud": null,
    "longitud": null
  },
  {
    "nombre": "CLUB DEPORTIVO SPARTAN KICKBOXING CLUB",
    "direccion": "LOS AZAHARES NRO.1056, EL MIRADOR II, VILLA ALEMANA",
    "latitud": null,
    "longitud": null
  },
  {
    "nombre": "CLUB DEL ADULTO MAYOR DE LA CONCEPCION",
    "direccion": "CALLE CASTRON°178 VILLA ALEMANA",
    "latitud": null,
    "longitud": null
  },
  {
    "nombre": "CAMARA DE TURISMO DE VILLA ALEMANA",
    "direccion": "AVDA. BELLAVISTA NRO.151, QUEBRADA ESCOBARES, VILLA ALEMANA",
    "latitud": -33.07764,
    "longitud": -71.30762
  },
  {
    "nombre": "CENTRO GENERAL DE PADRES Y APODERADOS COLEGIO NUEVO CHILENO BRITANICO",
    "direccion": "MATURANA NRO.272, VILLA ALEMANA",
    "latitud": null,
    "longitud": null
  },